Country,City,AccentCity,Region,Population,Latitude,Longitude
tr,zavli,Zavli,61,,40.897142,40.099496
gn,nabala,Nabala,07,,11.5333333,-10.9666667
gb,fidden,Fidden,T8,,56.3,-6.366667
pg,daginava 2,Daginava 2,09,,-6.4,145.45
hr,zminj,Zminj,04,,45.1427778,13.9088889
gb,fife keith,Fife Keith,V6,,57.533333,-2.966667
pe,miraflores,Miraflores,24,,-3.6811111,-80.3263889
id,bendotretok,Bendotretok,08,,-7.4448,112.565
gb,fifield,Fifield,K2,,51.85,-1.65
ru,galancoz,Galancoz,CI,,42.883333,45.3
gb,filby,Filby,I9,,52.65,1.666667
id,gunungcibulakan,Gunungcibulakan,30,,-7.362,108.1575
gb,filgrave,Filgrave,I6,,52.133333,-.716667
kr,turari,Turari,13,,37.355833,127.642778
ng,kuewe,Kuewe,26,,7.3554,8.2726
gb,fillongley,Fillongley,P3,,52.466667,-1.583333
gb,filton,Filton,M6,,51.508611,-2.574722
in,ambi danna,Ambi Danna,12,,32.979167,74.6375
us,plain view,Plain View,AR,,34.3013889,-92.1041667
kp,tangmol,Tangmol,09,,38.3933333,126.8105556
pl,schalmey,Schalmey,85,,54.289626,19.868866
gb,finchampstead,Finchampstead,F2,,51.35,-.85
zr,saitala,Saitala,00,,-10.7833333,23.3666667
gb,finchley,Finchley,A2,,51.6,-.166667
gb,findermore,Findermore,S1,,54.4,-7.2
kr,yokpungni,Yokpungni,13,,37.257222,127.180556
gb,findhorn,Findhorn,V6,1040,57.65,-3.6
gb,findochty,Findochty,V6,1102,57.683333,-2.9
th,ban pran,Ban Pran,35,,14.728306,100.331167
pk,basaya,Basaya,04,,32.197754,74.740802
kr,kalli,Kalli,17,,36.6,126.716667
it,rigolo,Rigolo,05,,44.716667,9.616667
gb,fingask,Fingask,T6,,57.333333,-2.366667
gb,fingest,Fingest,B9,,51.6,-.866667
id,alur meurbo,Alur Meurbo,01,,4.9347,97.6918
id,manrimisicaddi,Manrimisicaddi,38,,-4.998,119.5307
gb,fingringhoe,Fingringhoe,E4,,51.833333,.933333
gb,finmere,Finmere,B9,,51.983333,-1.066667
gb,finnart,Finnart,W1,,56.666667,-4.416667
ru,gusek,Gusek,83,,55.6713,41.4808
ua,horishnya slobidka,Horishnya Slobidka,22,,49.122237,25.160819
ve,punceres,Punceres,16,,9.91,-63.12
tr,sarikoy,Sarikoy,70,,37.666679,43.538325
gb,finsbury,Finsbury,I8,,51.528393,-.11435
ht,plaine sable,Plaine Sable,12,,18.3666667,-74.2833333
gb,fintona,Fintona,T3,,54.5,-7.316667
sn,bargny gouddou,Bargny Gouddou,01,,14.6938889,-17.2336111
ru,demokhi,Demokhi,77,,55.7165,32.7596
gb,finvoy,Finvoy,R1,,55,-6.5
lt,pajomantis,Pajomantis,63,,55.6666667,22.1166667
id,paldalapan,Paldalapan,30,,-6.496667,107.503056
za,rooiplass,Rooiplass,05,,-31.216667,26.416667
hu,nagygyon,Nagygyón,08,,47.317631,18.089078
se,ljungsbro,Ljungsbro,16,,58.516667,15.5
id,gunungbodas,Gunungbodas,30,,-7.2539,107.8415
gb,fishburn,Fishburn,D8,,54.683333,-1.433333
id,bengkalan,Bengkalan,11,,-.516667,109.25
jm,stanhope,Stanhope,01,,18.1833333,-77.2666667
gb,fisherton,Fisherton,P8,,51.15,-2
pk,thoru,Thoru,03,,36.3757,72.3968
ru,kiya,Kiya,50,,67.658685,44.094797
se,simondal,Simondal,09,,57.933333,16.183333
gb,fishponds,Fishponds,B7,,51.486389,-2.513889
id,ivenke,Ivenke,36,,-7.166667,140.316667
gb,fishtown of usan,Fishtown of Usan,T7,,56.683333,-2.45
gb,fiskavaig,Fiskavaig,V3,,57.3,-6.433333
lk,nayiliya,Nayiliya,32,,7.45,80.35
in,bamhni,Bamhni,35,,22.483333,80.366667
ng,tugan lafia,Tugan Lafia,31,,10.834556,4.301128
ng,dambo gaji,Dambo Gaji,40,,12.182011,3.700845
ir,qal`eh-ye mohi od din,Qal`eh-ye Mohi od Din,34,,34.719612,49.976826
gb,fitz,Fitz,L6,,52.75,-2.816667
th,ban thung nok,Ban Thung Nok,66,,7.25,100.316667
gb,fitzwilliam,Fitzwilliam,O7,,53.633333,-1.383333
gb,fiunary,Fiunary,V3,,56.55,-5.85
pl,neuendorf nerfken,Neuendorf Nerfken,85,,54.184285,20.513526
gb,fivemiletown,Fivemiletown,S1,,54.383333,-7.3
no,hovde,Hovde,02,,59.533333,7.35
gb,five penny borve,Five Penny Borve,W8,,58.416667,-6.416667
gw,aliu bure,Aliu Burè,10,,12.3666667,-14.3166667
jp,shingu,Shingu,07,25992,33.716667,130.433333
gb,flagg,Flagg,D3,,53.216667,-1.8
gb,flamborough,Flamborough,E1,,54.1,-.116667
ye,al `aja'iz,Al `Aja'iz,06,,13.2011111,44.4111111
pe,yacuacancha,Yacuacancha,12,,-11.1772222,-75.9627778
gw,sincha boche,Sinchã Boché,04,,11.9166667,-14.5666667
pk,chak latifullah,Chak Latifullah,04,,33.055658,73.685197
us,greencastle,Greencastle,WV,,38.0633333,-81.3730556
iq,majid hamid,Majid Hamid,10,,33.8858333,45.0841667
gb,flaxley,Flaxley,E6,,51.833333,-2.45
ir,zangi kalat,Zangi Kalat,04,,25.7,61.383333
mz,telele,Tèlelè,06,,-15.9705556,39.3441667
gb,fleet,Fleet,F2,34218,51.283333,-.833333
ve,los guires,Los Güires,03,,7.6,-67.35
gb,fleetland,Fleetland,F2,,50.833333,-1.183333
gb,fleetwood,Fleetwood,H2,27077,53.916667,-3
ir,rebat,Rebat,40,,33.286944,57.504722
gb,flempton,Flempton,N5,,52.3,.65
id,tugu tengah,Tugu Tengah,30,,-6.601944,106.691389
vn,lang lam,Làng Lâm,16,,20.55,105.583333
mm,tarazu,Tarazu,12,,13.2666667,98.9833333
ng,akpaku,Akpaku,41,,7.983333,7.266667
gr,esik-dere,Esík-Deré,02,,41.2333333,25.7666667
id,sinah,Sinah,17,,-8.8129,116.253
gq,nkumesong,Nkumesong,06,,1.6,10.3333333
gb,flinton,Flinton,E1,,53.8,-.166667
my,padang serai,Padang Serai,02,,5.51307,100.553562
mx,carrizo de rubios,Carrizo de Rubios,14,,20.8,-102.066667
ua,mushayrusskiy,MushayRusskiy,11,,45.35,34.916667
id,demang,Demang,07,,-6.6762,111.0746
us,state line,State Line,TN,,36.5902778,-84.4388889
us,concrete,Concrete,WA,,48.5394444,-121.7450000
md,nimereuca,Nimereuca,87,,48.113889,28.535556
pk,goth mamdani,Goth Mamdani,04,,28.426065,69.932963
tr,kisla,Kisla,31,,36.379505,36.179002
tr,salarkolu,Salarkolu,57,,41.25,35.35
pe,chugollpa,Chugollpa,13,,-7.7961111,-77.8411111
nl,het laar,Het Laar,06,,51.472646,4.673069
lk,bananga,Bananga,29,,7.3666667,80.55
ug,kelak,Kelak,26,,2.65,32.9166667
gb,flynnon taf,Flynnon Taf,X5,,51.542778,-3.2725
ru,blagodatka,Blagodatka,72,,53.671284,42.070974
lk,kurukuda,Kurukuda,29,,7.15,80.5666667
ye,bana fadl,Bana Fadl,13,,13.9833333,44.5166667
gb,fockerby,Fockerby,J3,,53.666667,-.716667
ru,maloye bashkatovo,Maloye Bashkatovo,56,,53.166667,36.25
kr,wonjongsan,Wonjongsan,03,,35.601104,127.075148
gb,fogo,Fogo,T9,,55.733333,-2.366667
ng,kpachita sokyanya,Kpachita Sokyanya,31,,8.933333,5.9
se,starbsnas,Stärbsnäs,26,,59.816667,19.05
ru,urbakh,Urbakh,67,,51.235,46.974167
us,centennial village,Centennial Village,UT,,40.6994444,-112.0647222
gb,folkton,Folkton,J7,,54.2,-.383333
gb,fonthill bishop,Fonthill Bishop,P8,,51.096389,-2.093889
ng,aho igbada,Aho Igbada,32,,8.1,4.533333
it,san pancrazio,San Pancrazio,05,,44.358889,12.085556
hr,varazdin breg,Varazdin Breg,16,,46.2380556,16.3677778
us,yellowjacket,Yellowjacket,ID,,44.9797222,-114.5308333
ru,bolshiye tokshiki,Bolshiye Tokshiki,16,,55.926435,46.650692
zr,ka-ngombo,Ka-Ngombo,00,,-6.9166667,18.85
gn,teyeoun,Teyeoun,24,,7.6588889,-8.8794444
se,rotabo,Rotabo,06,,56.966667,13.483333
ru,turomshchino,Turomshchino,76,,53.87813,35.978369
ru,bezdushnikovo,Bezdushnikovo,85,,58.883333,40.25
mx,guarda raya,Guarda Raya,24,,22.733333,-100.85
gb,ford green,Ford Green,N4,,53.05,-2.166667
pk,thatti lal,Thatti Lal,04,,30.101014,71.366083
gb,fordham,Fordham,E4,,51.916667,.8
gb,fordingbridge,Fordingbridge,F2,,50.933333,-1.8
so,galoollo,Galoollo,04,,2.65,43.9833333
id,banjar pangkungkarung kangin,Banjar Pangkungkarung Kangin,02,,-8.5437,115.1036
ru,kidiri,Kidiri,CI,,42.998042,46.147937
my,kampong parit meriam,Kampong Parit Meriam,01,,2.1875,102.673
zm,kaombwe,Kaombwe,07,,-9.4666667,32.8833333
th,ban nong sak,Ban Nong Sak,46,,13.28875,101.179278
mx,santa maria ocotlan,Santa María Ocotlan,10,,22.983333,-104.516667
lr,kenata,Kenata,05,,7.6011111,-9.9188889
gb,forfar county,Forfar County,T7,,56.666667,-2.916667
ua,dermanka,Dermanka,09,,50.323252,27.326166
gb,forfarshire,Forfarshire,T7,,56.666667,-2.916667
pl,peplino,Peplino,82,,54.528627,16.866489
gb,forkhill,Forkhill,S9,,54.083333,-6.45
ph,kungtad,Kungtad,60,2464,5.5572,120.8472
gb,formby,Formby,L8,24225,53.55,-3.05
ng,moru,Moru,57,,12.462837,6.766206
gn,tahire,Tahire,04,,9.4644444,-13.7963889
lk,metiwewa,Metiwewa,32,,7.5,80.1833333
th,ban bang si khot,Ban Bang Si Khot,55,,13.497667,100.219639
id,banjar simpangan,Banjar Simpangan,02,,-8.5806,115.1012
gb,forres,Forres,V6,9134,57.6,-3.616667
mz,malijane,Malijane,03,,-22.7025,35.2936111
rs,baralici,Baralici,00,,43.766667,20.204444
gb,forsinard,Forsinard,V3,,58.35,-3.9
lk,wilakatupota,Wilakatupota,32,,7.6119444,80.2536111
lk,champankaddaikadu,Champankaddaikadu,31,,8.8666667,79.9666667
lt,stragutyshki,Stragutyshki,62,,55.2333333,22.35
gr,myrofyllon,Myrófyllon,22,,39.3669444,21.3247222
gb,fort george,Fort George,V3,,57.566667,-4.033333
gb,fort halstead,Fort Halstead,G5,,51.316667,.133333
ru,klyuchanskiy,Klyuchanskiy,84,,50.4288,41.9057
gb,fortingall,Fortingall,W1,,56.583333,-4.05
ru,zarechnyy,Zarechnyy,86,,51.161581,39.825812
gh,sepasi,Sepasi,02,,6.7,-1.75
sn,vendou boubou,Vèndou Boubou,08,,14.7833333,-14.85
ml,kerligani,Kerligani,00,,14.6666667,-8.45
mq,quartier beauregard,Quartier Beauregard,00,,14.5333333,-60.8666667
gb,fort wallington,Fort Wallington,F2,,50.85,-1.166667
us,el mirage,El Mirage,CA,,34.6022222,-117.6302778
mx,magueyes,Magueyes,14,,20.983333,-102.733333
gb,fosbury,Fosbury,P8,,51.316667,-1.533333
us,obed junction,Obed Junction,TN,,36.0794444,-84.7638889
vn,kin tchang ho,Kin Tchang Ho,19,,22.5,103.733333
ru,roskoshnyy,Roskoshnyy,38,,46.536243,39.843872
no,brattekleiv,Brattekleiv,02,,58.446389,8.790278
kr,poksu,Poksu,17,,36.1657,127.3987
in,kilcheri,Kilcheri,25,,13.016667,79.85
gr,kremaston,Kremastón,34,,38.5166667,24.0333333
gb,fotherby,Fotherby,H7,,53.4,-.016667
tr,emisbeleni,Emisbeleni,07,,36.617285,31.87354
mm,kalabe,Kalabe,13,,16.3138889,97.5497222
pg,lavatburra,Lavatburra,15,,-3.1666667,151.7833333
gb,foulford,Foulford,W1,,56.416667,-3.783333
gb,foulham,Foulham,I9,,52.783333,1.016667
ru,trezuby,Trezuby,90,,59.561115,55.901946
gb,foulness,Foulness,E4,,51.6,.9
ph,talahiban i,Talahiban I,09,,13.806944,121.388056
gb,foulsham,Foulsham,I9,,52.783333,1.016667
id,pernang,Pernang,17,,-8.4613,117.0405
mx,rancho viejo,Rancho Viejo,23,,19.9125,-88.541667
ro,marculesti,Marculesti,22,,44.433333,27.5
gb,four crosses,Four Crosses,Y8,,52.75,-3.083333
gb,four marks,Four Marks,F2,,51.116667,-1.05
my,tukan sedin,Tukan Sedin,07,,4.066667,101.1
gb,fourstones,Fourstones,J6,,55,-2.166667
zm,lubushi,Lubushi,07,,-10.2666667,30.4666667
ru,kumya,Kumya,45,,56.685879,46.650094
us,persimmon point,Persimmon Point,VA,,37.8455556,-75.5444444
gb,fowlis wester,Fowlis Wester,W6,,56.383333,-4.733333
id,kwarasan,Kwarasan,08,,-7.8209,112.1299
tr,yerkozlu,Yerkozlu,05,,40.720238,36.184777
gb,fownhope,Fownhope,F7,,52,-2.6
ru,kotokhchu-kyuyel,Kotokhchu-Kyuyel,63,,68.15,145.583333
gb,foxholes,Foxholes,J7,,54.133333,-.45
us,bon air estates,Bon Air Estates,OH,,40.6602778,-81.1305556
gb,foxton,Foxton,C3,,52.116667,.066667
th,ban si mongkhon,Ban Si Mongkhon,78,,16.534972,104.359222
ru,lvovskiy pyatyy,Lvovskiy Pyatyy,17,,43.374802,47.227525
pk,sangal,Sangal,03,,34.158746,73.483305
kr,mongnaemi,Mongnaemi,17,,36.8189,126.2762
hu,kiserdopuszta,Kiserdopuszta,17,,46.45,17.333333
ph,uguis,Uguis,28,,17.8897,120.5726
il,ami`ad,Ami`ad,03,,32.928237,35.54154
gb,framlingham,Framlingham,N5,,52.216667,1.333333
ng,yarda,Yarda,46,,10.429433,10.581625
gb,frampton,Frampton,D6,,50.75,-2.533333
sl,toso,Toso,03,,6.9666667,-11.4333333
ru,kharina,Kharina,83,,56.05292,41.985856
th,ban tha maprang,Ban Tha Maprang,10,,17.208306,100.048639
gb,thornton,Thornton,L8,,53.5,-3
gb,frankley,Frankley,Q4,,52.416667,-2
gb,sponden,Sponden,D2,,52.9,-1.4
us,elliott,Elliott,AR,,33.4572222,-92.8277778
mm,loi-hpang,Loi-hpang,11,,23.6,97.1333333
se,onnebo,Önnebo,16,,58.233333,15.283333
sy,chlouh,Chloûh,11,,34.7333333,36.2166667
ir,chah maru,Chah Maru,07,,28.1528,53.2167
gb,freckenham,Freckenham,C3,,52.316667,.433333
pt,carreco,Carreço,20,,41.746375,-8.863758
gb,freeby,Freeby,H5,,52.75,-.8
ht,cocherel,Cocherel,06,,19.45,-72.6333333
gb,freiston,Freiston,H7,,52.966667,.05
gb,fremington,Fremington,D4,,51.066667,-4.116667
gb,frenchay,Frenchay,M6,,51.500833,-2.521111
kh,phumi prek anteah,Phumi Prek Anteah,14,,11.4833333,105.2166667
it,porto maurizio,Porto Maurizio,08,,43.866667,8.016667
gb,freshford,Freshford,A4,,51.339167,-2.303056
gb,freshwater east,Freshwater East,Y7,,51.649722,-4.864444
pl,wysoka,Wysoka,86,,52.622497,17.242148
gb,fressingfield,Fressingfield,N5,,52.35,1.3
no,tveite,Tveite,02,,58.3,8.25
gb,freswick,Freswick,V3,,58.583333,-3.083333
la,ban houang,Ban Houang,15,,17.071111,106.084722
ru,nazimovo,Nazimovo,60,,56.401355,31.083792
kp,chinnampo,Chinnampo,14,,38.7327778,125.4080556
tr,navruzlu,Navruzlu,46,,37.413691,36.973497
gb,freystrop,Freystrop,Y7,,51.763333,-4.960278
gb,fridaythorpe,Fridaythorpe,E1,,54.016667,-.666667
id,karangbimangoen,Karangbimangoen,08,,-7.0139,112.5042
ge,leladziseuli,Leladziseuli,61,,42.0666667,43.1333333
ru,razvedchik,Razvedchik,44,,62.35,151.316667
gb,frilsham,Frilsham,P4,,51.45,-1.216667
sl,tekwiama,Tekwiama,01,,8.1166667,-11.2666667
ir,cheshmeh-ye nurollah,Cheshmeh-ye Nurollah,10,,33.766667,46.516667
tr,susuz,Susuz,25,,39.679383,41.67331
ru,malyye butaki,Malyye Butaki,77,,56.3329,32.5529
gb,frinton-on-sea,Frinton-on-Sea,E4,,51.833333,1.25
pl,soponin,Soponin,73,,53.263702,18.237677
gb,frisby,Frisby,H5,,52.733333,-.966667
gb,frisby on the wreak,Frisby on the Wreak,H5,,52.733333,-.966667
gb,friskney,Friskney,H7,,53.066667,.183333
gb,frisland,Frisland,T8,,56.583333,-6.6
ru,belyye gorki,Belyye Gorki,84,,49.960042,45.185758
ru,krasnyi chikoi,Krasnyi Chikoi,93,,50.3643,108.7512
ru,staro-nikolskoye,Staro-Nikolskoye,73,,56.230294,52.850635
gb,frith bank,Frith Bank,H7,,53.016667,-.033333
kr,taejangdari,Taejangdari,20,,35.619459,128.264544
pk,mehtam,Mehtam,04,,29.909657,70.737969
gh,bukokore,Bukokore,09,,6.1,-2.7333333
ir,eshliki,Eshliki,08,,37.287983,49.909552
ru,mogilevskiy,Mogilevskiy,56,,52.3472,35.8892
gb,frizington,Frizington,C9,,54.533333,-3.483333
sy,jediya,Jediya,05,,32.85,36.5166667
sd,manjur,Manjur,32,,9.0166667,28.0166667
pk,jhok murad,Jhok Murad,04,,31.283333,73.466667
gb,frodsham,Frodsham,Z8,,53.3,-2.733333
gb,frogden,Frogden,T9,,55.55,-2.383333
us,vauxhall,Vauxhall,NJ,,40.7313889,-74.2833333
tw,houhsupo,Houhsüpo,01,,24.5244444,118.4227778
gb,frome,Frome,M3,24948,51.229167,-2.318333
id,sekof,Sekof,39,,-1.3,132.216667
mz,vilico,Vilico,09,,-16.7611111,38.8477778
gb,frongoch,Frongoch,Y2,,52.933333,-3.633333
gb,frostenden,Frostenden,N5,,52.366667,1.65
gb,frosterley,Frosterley,D8,,54.733333,-1.933333
tr,tepeyatak koyu,Tepeyatak Köyü,60,,40.561151,36.734106
ng,dakomba,Dakomba,31,,9.05,5.833333
ru,telman,Telman,38,,44.258056,40.935556
gb,fuenary house,Fuenary House,V3,,56.55,-5.85
ru,navoloki,Navoloki,60,,55.816667,31.033333
gb,fulbourne,Fulbourne,C3,,52.183333,.216667
id,cekel,Cekel,10,,-8.033889,110.479444
jp,ugawa,Ugawa,02,,40.083333,140.033333
ng,idi agbon alagbede,Idi Agbon Alagbede,30,,8.616667,4.366667
tr,bazkoy,Bazköy,65,,38.013056,44.110833
id,tebes luwes,Tebes Luwes,01,,4.6088,96.7935
ve,el cocal,El Cocal,20,,8.1016667,-72.0383333
pk,kot kandar,Kot Kandar,04,,30.983333,73.2
ir,seylaneh,Seylaneh,01,,37.2931,45.1388
pk,abdur rahman,Abdur Rahman,03,,32.861944,70.625278
ua,khutor goshov,Khutor Goshov,27,,51.15,28.65
gh,boewi,Boewi,09,,5.15,-2.45
id,nanggul,Nanggul,30,,-6.113889,106.551111
ir,narju'iyeh,Narju'iyeh,29,,28.6981,57.6876
gb,fulwood,Fulwood,L9,,53.35,-1.55
us,springerton,Springerton,IL,,38.1794444,-88.3541667
id,tjikumpa 2,Tjikumpa 2,30,,-6.4125,106.831389
gb,funzie,Funzie,W3,,60.583333,-.8
gb,furnace,Furnace,T8,,56.15,-5.166667
ml,morobougou banbara,Morobougou Banbara,05,,13.6,-5.4166667
in,navadra,Navadra,09,,21.95,69.258889
ng,balasa,Balasa,55,,9.3,11.016667
ru,gostyatina,Gostyatina,42,,59.095233,29.228834
ma,sedari,Sedari,57,,34.75,-5.18
us,edsons,Edsons,AL,,32.3180556,-86.7752778
ir,durabad,Durabad,13,,34.138,47.4633
gb,fyling thorpe,Fyling Thorpe,J7,,54.416667,-.533333
gb,fyvie,Fyvie,T6,499,57.416667,-2.383333
gb,gaddesby,Gaddesby,H5,,52.7,-.966667
my,kampung darat mak bar,Kampung Darat Mak Bar,06,,3.8126,103.3006
gb,gaer-fawr,Gaer-fawr,Y4,,51.681944,-2.808611
my,kampong tindak,Kampong Tindak,16,,5.4,115.4
lv,ezermala,Ezermala,19,,56.5666667,27.75
gb,gailey,Gailey,N1,,52.7,-2.133333
gb,gainesborough,Gainesborough,H7,,53.383333,-.766667
id,gonjong,Gonjong,17,,-8.5793,116.4419
vn,nhu lang,Nhu Lang,48,,9.919167,105.755278
us,blount,Blount,GA,,33.1802778,-83.9594444
id,bukit baja sejahtera tiga,Bukit Baja Sejahtera Tiga,33,,-6.0291,106.0433
gb,gaisgill,Gaisgill,C9,,54.433333,-2.55
ru,samarovo,Samarovo,88,,56.616667,38.866667
us,samarcand,Samarcand,NC,,35.2994444,-79.6847222
gb,galdanagh,Galdanagh,S3,,54.966667,-6
jp,hasumachi,Hasumachi,42,,36.733333,137.233333
iq,`abd al karim,`Abd al Karim,10,,33.6125,44.3441667
sy,hasnane yachoute,Hasnâne Yâchoute,02,,35.3166667,36.1333333
se,rofors,Röfors,15,,58.95,14.616667
kr,kosado,Kosado,21,,35.5,129.35
gb,galmisdale,Galmisdale,V3,,56.866667,-6.15
pk,mariwala,Mariwala,04,,29.316374,71.324028
iq,shaikh mutlaq al ghidhaib,Shaikh Mutlaq al Ghidhaib,07,,33.0666667,44.5666667
it,pignola,Pignola,02,,40.566667,15.783333
mz,govemende,Govemende,10,,-19.8791667,33.2658333
kp,hagompa,Hagompa,03,,40.605,128.4491667
gb,gamblesby,Gamblesby,C9,,54.733333,-2.6
ro,rustior,Rustior,06,,46.983333,24.666667
gb,gammersgill,Gammersgill,J7,,54.233333,-1.9
jp,nikkawahama,Nikkawahama,14,,35.866667,140.733333
gb,gamston,Gamston,J9,,53.266667,-.933333
gb,gannachy,Gannachy,T7,,56.816667,-2.65
pl,dramino,Dramino,87,,53.880991,14.698698
ru,lukyanovka,Lukyanovka,29,,54.2209,86.7103
gb,garabost,Garabost,W8,,58.216667,-6.216667
id,wanamukti,Wanamukti,21,,.4893,120.9313
ph,maindang,Maindang,18,,11.3279,122.7364
id,klontong,Klontong,07,,-6.726,110.8377
ru,seleznevo,Seleznëvo,56,,53.130324,37.133797
ua,vyazovaye,Vyazovaye,21,,50.191716,34.639022
gb,garelochhead,Garelochhead,T8,1296,56.083333,-4.85
id,simpangempat,Simpangempat,35,,-2.583333,107.766667
mg,andranomiely atsimo,Andranomiely Atsimo,05,,-17.8333333,47.2333333
gb,gargrave,Gargrave,J7,,53.983333,-2.1
me,tusupi,Tusupi,00,,42.465278,18.530556
ru,sukholzhino,Sukholzhino,77,,58.6899,36.8368
om,zaydi,Zaydi,04,,22.545,58.1769444
mg,ambohimanga,Ambohimanga,03,,-17.4833333,48.05
gb,garlogie,Garlogie,T6,,57.133333,-2.35
gb,garmond,Garmond,T6,,57.55,-2.316667
mx,el pedernal,El Pedernal,26,,28.416667,-111.383333
gb,garnant,Garnant,X7,,51.783333,-3.9
pk,lochhmanwala,Lochhmanwala,04,,31.431027,73.208767
pl,wielkopole,Wielkopole,75,,50.9598,23.03693
kh,phumi trapeang tramung,Phumi Trapeang Tramung,19,,10.8666667,104.7833333
ye,al khawkah,Al Khawkah,08,,13.8066667,43.2505556
gb,garryduff,Garryduff,R1,,55.033333,-6.45
ru,bedekel,Bedekel,63,,64.016667,133.233333
ru,liwny,Liwny,56,,52.425344,37.606888
ir,tal chah,Tal Chah,07,,30.018077,51.785039
mx,guagueyvo,Guagüeyvo,06,,27.383333,-107.8
tj,durmonbuloq,Durmonbuloq,02,,38.4305556,68.3911111
tr,bebek,Bebek,75,,38.499834,34.203694
mx,rancho viejo,Rancho Viejo,01,,22.116667,-102.516667
gb,garthbeibio,Garthbeibio,Y8,,52.7,-3.5
gb,gartheli,Gartheli,X6,,52.183333,-4.066667
vn,lang guouang,Làng Guouang,11,,21.416667,106.733333
my,kampung parit batu dua puluh enam,Kampung Parit Batu Dua Puluh Enam,07,,3.9535,100.7815
jp,osawa,Osawa,15,,37.366667,136.8
gb,gartnagrenach,Gartnagrenach,T8,,55.766667,-5.5
ge,p'shaveli,P'shaveli,51,,42.0838889,45.4425
gb,garton,Garton,E1,,53.8,-.066667
tr,taskapi,Taskapi,15,,37.641111,30.420278
tr,esmekaya,Esmekaya,75,,38.256827,33.445775
gb,garvaghy,Garvaghy,T3,,54.483333,-7.133333
nl,cornwerd,Cornwerd,02,,53.083705,5.392117
id,pangadeugan,Pangadeugan,30,,-7.2745,107.9283
gb,garve,Garve,V3,,57.616667,-4.7
si,palina,Palina,09,,46.5719444,16.3469444
th,muban haeppi phlet,Muban Haeppi Phlet,42,,13.636722,100.710222
in,melur,Melur,25,33842,10.05,78.333333
gb,garynahine,Garynahine,W8,,58.183333,-6.7
ru,ambarnyy,Ambarnyy,28,,65.89559,33.727555
la,ban dakyoy,Ban Dakyoy,01,,15.291111,107.209444
md,frunze,Frunze,58,,46.828333,29.880278
gb,gaswater,Gaswater,U4,,55.483333,-4.183333
tr,karsigecit,Karsigecit,77,,40.386215,40.409414
ru,tserkovny,Tserkovny,38,,44.234444,39.764167
ht,hyacinthe,Hyacinthe,11,,18.3666667,-72.9833333
gb,gate helmsley,Gate Helmsley,Q5,,53.983333,-.933333
pk,bidnanwali,Bidnanwali,04,,31.799882,74.486255
me,krc,Krc,00,,43.1475,19.753333
us,haviland,Haviland,NY,,41.7666667,-73.9019444
gb,gatenby,Gatenby,J7,,54.283333,-1.5
gb,gatesgill,Gatesgill,C9,,54.8,-2.95
zr,mokanga,Mokanga,12,,-4.3105556,28.8230556
gb,gateshead,Gateshead,E5,77649,54.945,-1.6175
lv,rubaniski,Rubaniski,07,,56.0166667,26.6666667
ru,krutoyar vtoroy,Krutoyar Vtoroy,67,,52.1277,44.6562
gb,gatton,Gatton,N7,,51.25,-.166667
gb,gattonside,Gattonside,T9,,55.6,-2.733333
gb,gatwick,Gatwick,N7,,51.166667,-.183333
kh,chong cheach,Chong Cheach,02,,11.9166667,105.85
ir,dar chandru,Dar Chandru,29,,29.5128,57.1655
id,batutanenge,Batutanenge,38,,-4.9289,120.0844
gb,gawsworth,Gawsworth,Z7,,53.216667,-2.166667
id,nggelo,Nggelo,18,,-8.8405,121.8456
td,dari,Dari,05,,11.9833333,18.95
ir,hasanabad,Hasanabad,35,,36.478922,51.349157
ng,lamfa,Lamfa,31,,8.983333,5.75
ng,kula,Kula,49,,9.516667,9.633333
mx,buenavista,Buenavista,16,9121,19.2,-102.6
id,cilewo,Cilewo,30,,-6.291667,107.422778
gb,gayton thorpe,Gayton Thorpe,I9,,52.733333,.583333
pk,tando mohammad khan,Tando Mohammad Khan,05,,25.123007,68.535773
gr,stefanosaioi,Stefanosaíoi,22,,39.5111111,21.7413889
td,bogo,Bogo,01,,13.0666667,17.4666667
mz,chiaelane,Chiaelane,03,,-21.4016667,34.8858333
vn,xom bai xep,Xóm Bãi Xép,27,,13.683333,109.233333
gb,geddington,Geddington,J1,,52.433333,-.683333
us,loves park,Loves Park,IL,22650,42.3200000,-89.0580556
id,asumbatu,Asumbatu,21,,-2.765,122.063611
gb,gedney hill,Gedney Hill,H7,,52.666667,-.016667
td,arkoullou,Arkoullou,06,,13.9,15.8833333
gb,gelligaer,Gelligaer,X4,,51.583333,-3.25
lt,mazhunay,Mazhunay,61,,55.4833333,22.8833333
us,riverdale,Riverdale,MD,,39.0991667,-76.5361111
ru,malegurt,Malegurt,80,,57.659183,52.541639
mg,ambararatakely,Ambararatakely,03,,-16.9333333,47.5666667
gb,georgeham,Georgeham,D4,,51.133333,-4.2
gb,george nympton,George Nympton,D4,,50.983333,-3.85
sa,sumayriyah,Sumayriyah,08,,26.15,43.966667
gh,fufuo,Fufuo,02,,6.85,-1.7833333
gb,germansweek,Germansweek,D4,,50.733333,-4.216667
gb,germoe,Germoe,C6,,50.116667,-5.383333
hr,kuburici,Kuburici,14,,44.3613889,15.9352778
vn,ap thanh nhut,Ap Thanh Nhut,24,,10.7,106.416667
gb,gestingthorne,Gestingthorne,E4,,52.016667,.65
ge,pichvnari,Pichvnari,36,,43.2463889,42.5994444
gb,gidding,Gidding,C3,,52.433333,-.35
kr,taerigol,Taerigol,14,,36.3389,128.148
ru,mikhalevo,Mikhalëvo,60,,57.179288,28.828968
gb,giffnock,Giffnock,U7,16038,55.8,-4.283333
ru,likhun-zasetskiy,Likhun-Zasetskiy,25,,54.629756,36.265033
th,ban thung mak num,Ban Thung Mak Num,02,,18.382195,98.685695
pt,lejana de cima,Lejana de Cima,09,,37.031782,-7.932221
gb,gilcrux,Gilcrux,C9,,54.716667,-3.366667
ir,`aliabad-e pir shams od din,`Aliabad-e Pir Shams od Din,09,,34.6682,48.0029
vn,lang tre,Lang Tre,26,,19.266667,105.366667
tr,mezreaifisrik,Mezreaifisrik,25,,40.583333,41.283333
ru,kolpaki,Kolpaki,56,,52.5,36.633333
gb,gilford,Gilford,R2,,54.366667,-6.333333
vn,chung ngai,Chung Ngãi,86,,21.344346,105.045519
ru,shelegina,Shelegina,04,,52.2903,84.1555
gb,gillespie,Gillespie,U2,,54.833333,-4.733333
gb,gilling east,Gilling East,J7,,54.183333,-1.066667
gb,gilling,Gilling,J7,,54.183333,-1.066667
tr,abacilar,Abacilar,31,,36.60248,36.385206
us,upland,Upland,IN,,40.4755556,-85.4944444
id,cirotan,Cirotan,30,,-6.085278,107.343333
ht,beaulieu,Beaulieu,12,,18.14,-73.9594444
ua,korolevskiye,Korolevskiye,16,,46.9,31.816667
pk,chak 6-4 l,Chak 6-4 L,04,,30.761517,73.453297
tr,ayva,Ayva,82,,40.741432,33.977532
la,ban taphan,Ban Taphan,14,,19.583333,103.6
ph,tawod,Tawod,37,,10.3,124.8
gb,gilston,Gilston,V1,,56.266667,-2.916667
id,keputih,Keputih,08,,-7.289019,112.798658
ro,izvoarele,Izvoarele,18,,45.55,27.766667
gb,gipping,Gipping,N5,,52.233333,1.033333
tr,kutlubeydemirci,Kutlubeydemirci,87,,41.585533,32.33807
gb,girton,Girton,C3,,52.233333,.083333
gb,girvan,Girvan,W4,6821,55.233333,-4.866667
ht,cigala,Cigala,06,,19.0333333,-72.3
ro,sarmasul,Sarmasul,27,,46.75,24.166667
pg,labuain,Labuain,18,,-3.45,142.8166667
gb,gissing,Gissing,I9,,52.416667,1.166667
id,bailangu,Bailangu,32,,-2.9,103.95
ma,douar mtougga,Douar Mtougga,47,,31.53,-7.7
ph,vinisitahan,Vinisitahan,58,,12.9557,123.5635
pk,haji ali nawaz,Haji Ali Nawaz,05,,27.990553,67.82676
gb,glais,Glais,Z1,,51.683333,-3.883333
gb,glamis,Glamis,T7,,56.6,-3
iq,sidkan,Sidkan,11,,36.6822222,44.5975
in,chataktoli,Chataktoli,38,,22.633333,84.85
pt,jugueiros,Jugueiros,17,,41.1,-8.283333
us,fairplain,Fairplain,WV,,38.7525000,-81.6861111
gb,glandy cross,Glandy Cross,X7,,51.906667,-4.700278
jp,kurodani,Kurodani,42,,36.783333,137.483333
gb,glanton,Glanton,J6,,55.416667,-1.883333
gb,glapthorn,Glapthorn,J1,,52.483333,-.483333
gb,glasbury,Glasbury,Y8,,52.033333,-3.2
ir,fesanduz,Fesanduz,01,,37.109,45.8639
ir,tashuyeh,Tashuyeh,07,,28.422222,52.851944
lt,kiaukay,Kiaukay,62,,55.5166667,22.3
pl,stabunity,Stabunity,85,,54.206578,20.400381
mz,lampiao,Lampião,06,,-15.1341667,37.9544444
mw,feremu,Feremu,25,,-15.7333333,34.65
pk,direwala,Direwala,04,,30.335245,71.897389
id,pancuran,Pancuran,07,,-6.6532,111.5059
tr,karaborek,Karabörek,28,,40.316667,38.833333
ir,tisiyeh,Tisiyeh,08,,37.392154,49.705814
sk,hornie strhary,Hornie Strháry,01,,48.2666667,19.3666667
us,manning,Manning,MI,,45.5150000,-84.3511111
ir,kandelan,Kandelan,09,,34.50105,48.78183
ru,grayvoron,Grayvoron,09,6212,50.4767,35.6773
gb,glastonbury,Glastonbury,M3,,51.146667,-2.714444
gb,glaston,Glaston,C9,,54.116667,-3.133333
se,vastra eggvena,Västra Eggvena,28,,58.083333,12.866667
gr,iambolis,Iámbolis,02,,41.1666667,25.4833333
gb,glazebrook,Glazebrook,P2,,53.433333,-2.466667
ru,ruchenitsa,Ruchenitsa,85,,59.977697,45.326355
ir,darreh-ye saki,Darreh-ye Saki,23,,33.5765,48.6007
kp,ryusekri,Ryusekri,15,,39.4786111,125.4930556
th,ban mae tam,Ban Mae Tam,03,,19.496028,99.471278
gb,glemsford,Glemsford,N5,,52.1,.666667
pg,famonogu,Famonogu,09,,-6.1833333,145.2833333
mm,sabyusu,Sabyusu,09,,16.6333333,95.9166667
ir,darageh-ye oros khan,Darageh-ye Oros Khan,01,,36.9728,45.578
id,moearasingoah,Moearasingoah,05,,-1.65,103.266667
gb,glenavy,Glenavy,S5,,54.583333,-6.216667
hu,allami erdo,Allami Erdo,18,,46.1,21.983333
tr,hadrianutherae,Hadrianutherae,10,,39.649167,27.886111
il,sineid,Sineid,01,,31.566667,34.55
th,ban ton khae,Ban Ton Khae,74,,13.883333,101.383333
pe,cruz monte grande,Cruz Monte Grande,06,,-5.7158333,-78.7988889
gb,glenbreck,Glenbreck,T9,,55.466667,-3.483333
se,sovsta,Sövsta,18,,59.4,16.4
gb,glenbuck,Glenbuck,U4,,55.533333,-3.983333
ve,la hondonada,La Hondonada,15,,10.3338889,-67.0611111
ru,artyushino,Artyushino,69,,54.816111,33.25
gb,glenceitlein,Glenceitlein,V3,,56.566667,-5.016667
pk,goth wakol khan khosa,Goth Wakol Khan Khosa,05,,27.901588,68.256959
kh,phumi bat trang (1),Phumi Bat Trang (1),16,,13.5166667,103.4166667
us,melvin,Melvin,MN,,47.6208333,-96.3888889
mx,sisoguichic,Sisoguichic,06,,27.8,-107.483333
jp,iwaki,Iwaki,05,,34.236389,133.15
gb,glenelg,Glenelg,V3,,57.216667,-5.633333
id,muarapajang,Muarapajang,14,,-1.25,115.916667
mz,namachita,Namachita,09,,-17.5183333,36.9683333
vu,lasoule,Lasoulé,13,,-15.4,166.8
lk,kawuduwawa,Kawuduwawa,33,,6.5333333,80.6
ru,isakovo,Isakovo,71,,57.459996,63.824072
mx,lachidoblas,Lachidoblas,20,,16.033333,-96.366667
gb,glengyle,Glengyle,W6,,56.283333,-4.6
ua,chmyrovka,Chmyrovka,14,,49.292393,38.955557
ru,mongatalyang,Mongatalyang,87,,71.983333,75.266667
id,kepurun kidul,Kepurun Kidul,07,,-7.661667,110.478333
pk,kot kas,Kot Kas,03,,35.088509,71.988634
ru,morozovo,Morozovo,42,,59.311648,29.032719
id,watuhamatena,Watuhamatena,18,,-9.9325,120.147
gb,glenogil,Glenogil,T7,,56.75,-2.9
gb,glen parka,Glen Parka,H5,,52.566667,-1.116667
gb,glen parva,Glen Parva,H5,,52.566667,-1.116667
tr,asagisogutlu,Asagisogutlu,55,,41.216667,36.9
zr,konde kasamyu,Konde Kasamyu,08,,-4.95,12.7166667
pt,fonte do penedo,Fonte do Penedo,09,,37.331383,-7.471143
sl,kabere,Kabere,02,,9.5166667,-11.75
gb,glenrossal,Glenrossal,V3,,57.983333,-4.6
gb,glenross,Glenross,S2,,54.45,-7.716667
gb,glenrothes,Glenrothes,V1,38734,56.2,-3.183333
id,sawahrangru,Sawahrangru,30,,-6.876944,108.4825
kp,araebuhungni,Araebuhungni,06,,37.9641667,125.9005556
gb,glentworth,Glentworth,H7,,53.383333,-.583333
gb,glenurguhart,Glenurguhart,V3,,57.633333,-4.116667
gb,glenwhilly,Glenwhilly,U2,,55,-4.866667
id,simanalih,Simanalih,26,,2.9401,98.9147
pl,piorkowo,Piorkowo,73,,53.061722,19.199884
pl,kolaki koscielny,Kolaki Koscielny,81,,53.02162,22.377277
gb,gloucester,Gloucester,E6,128722,51.833333,-2.166667
zm,mwama,Mwama,01,,-13.1,26.7833333
gb,glusburn,Glusburn,J7,,53.9,-2
ru,belousovka,Belousovka,05,,50.987222,128.094167
pe,chosecani,Chosecani,08,,-14.1072222,-71.4377778
gn,danloro,Danloro,17,,9.4,-10.1333333
gb,glynde,Glynde,E2,,50.85,.066667
gb,glyndwr,Glyndwr,X9,,53,-3.333333
th,ban mai sai yoi,Ban Mai Sai Yoi,20,,17.330056,104.30375
ir,khudashteh,Khudashteh,08,,37.120278,48.972222
ru,poselok golovino,Posëlok Golovino,83,,55.952554,40.447476
ru,eleksin,Eleksin,11,,54.183333,110.666667
ir,sahanleh,Sahanleh,13,,34.8343,47.6557
ke,kabebero,Kabebero,01,,-0.55,36.8666667
se,bjorback,Björbäck,28,,57.783333,12.133333
zm,kalwa farm,Kalwa Farm,05,,-13.2333333,30.3666667
gb,goathland,Goathland,J7,,54.383333,-.716667
td,maloum choroma,Maloum Choroma,04,,11.0666667,15.75
mm,kinmigauk ywa,Kinmigauk Ywa,12,,11.5833333,98.4166667
mg,maharavoravo,Maharavoravo,05,,-18.6666667,47.1166667
gb,gobowen,Gobowen,L6,,52.883333,-3.033333
kp,isangni,Isangni,07,,38.8166667,126.9333333
pt,azevedo,Azevedo,17,,41.15,-8.566667
ro,rimnicu de sus,Rimnicu de Sus,14,,44.65,28.466667
gb,godmersham,Godmersham,G5,,51.216667,.95
ir,bu'igan,Bu'igan,11,,26.51527,58.274928
th,ban si suk,Ban Si Suk,22,,16.9,102.65
td,goubeti,Goubéti,09,,7.8666667,17.1666667
us,fowler knob,Fowler Knob,WV,,38.1838889,-80.8125000
gt,crique sarstun,Crique Sarstún,09,,15.85,-88.9
gb,goffs oak,Goffs Oak,F8,,51.7,-.083333
zm,kakumi,Kakumi,04,,-17.8333333,25.7166667
ma,ait serehane,Aït Serehane,53,,29.877597,-8.533638
my,kampong jerijeh,Kampong Jerijeh,11,,2.15,111.183333
ua,virki,Virki,21,,51.108004,34.092659
ph,pulutan,Pulutan,18,,11.507778,122.9075
gb,goldcliff,Goldcliff,Y6,,51.542222,-2.917778
gb,golden cross,Golden Cross,F7,,52.2,-2.833333
gb,golden grove,Golden Grove,X7,,51.8575,-4.0475
gb,golden valley,Golden Valley,E6,,51.9,-2.133333
ir,firuzabad,Firuzabad,01,,37.082,45.96
mn,bulagan khid,Bulagan Khid,12,,46.6,91.1333333
gb,goldsborough,Goldsborough,J7,,53.983333,-1.416667
ye,riqqat ba sawmah,Riqqat Ba Sawmah,14,,14.1833333,47.5
gb,gomersal,Gomersal,G8,,53.766667,-1.816667
hr,antovo,Antovo,12,,45.2166667,14.7166667
ro,buzdugan,Buzdugan,07,,48.1,26.766667
ua,bugayevo spiridonovskiy,Bugayevo Spiridonovskiy,08,,46.216667,33.4
pk,abdullah khan koruna,Abdullah Khan Koruna,03,,34.186389,71.83
th,ban huai pong,Ban Huai Pong,04,,19.174889,101.170056
ro,glogova,Glogova,19,1980,44.928056,22.906667
gb,goodnestone,Goodnestone,G5,,51.233333,1.233333
in,doddimetta,Doddimetta,37,,18.183333,81.866667
gb,goodwick,Goodwick,Y7,,52.011944,-4.997778
gb,goodworth clatford,Goodworth Clatford,F2,,51.166667,-1.483333
gb,goole,Goole,E1,,53.716667,-.866667
kr,muksoktong,Muksoktong,16,,34.936284,127.113415
tr,sivritepe,Sivritepe,53,,41.111922,40.92598
gb,gordonbush,Gordonbush,V3,,58.05,-3.95
ml,dyako,Dyako,06,,12.185,-7.2386111
ir,gezeli `olya,Gezeli `Olya,15,,30.8678,49.3199
sk,zakovce,Zakovce,05,,49.0833333,20.4
gb,gorfield,Gorfield,C3,,52.683333,.1
ru,roslovka,Roslovka,10,,53.150658,32.491575
th,ban pathum rat,Ban Pathum Rat,81,,18.197222,103.425556
gb,goring,Goring,K2,,51.516667,-1.133333
us,hinkleville,Hinkleville,WV,,38.9266667,-80.2625000
gb,gorleston,Gorleston,I9,,52.583333,1.716667
ir,kahrog,Kahrog,15,,31.846944,50.102778
pl,nebrowo male,Nebrowo Male,82,,53.647584,18.788726
gb,gorran,Gorran,C6,,50.233333,-4.8
ir,labbak mahalleh,Labbak Mahalleh,08,,37.213,49.879
ir,qal`elan,Qal`elan,16,,35.1022,47.635
ph,bacolod,Bacolod,I5,,16.851557,121.878841
gb,gortencorn,Gortencorn,V3,,56.75,-5.866667
ye,ba `urwah,Ba `Urwah,14,,14.8666667,47.1166667
gb,gortenfern,Gortenfern,V3,,56.766667,-5.916667
kh,trapen kho,Trapen Kho,13,,14.25,105.2
gb,gortinane,Gortinane,T8,,55.666667,-5.65
gb,gortin,Gortin,T3,,54.716667,-7.25
ie,balbane,Balbane,06,,54.6902778,-8.445
gb,gortnessey,Gortnessey,S6,,54.983333,-7.216667
rs,ceranje,Ceranje,00,,43.026667,20.853889
gb,gortnessy upper,Gortnessy Upper,S6,,54.983333,-7.216667
pk,walhari,Walhari,05,,24.433661,69.08177
gb,gortonfern,Gortonfern,V3,,56.766667,-5.916667
id,seleman,Seleman,07,,-7.722222,109.913056
ml,benena,Bénéna,04,,13.1166667,-4.3666667
ir,al bulaq,Al Bulaq,16,,35.3634,47.1775
mx,colorada,Colorada,14,,21.816667,-101.633333
gb,gosforth,Gosforth,I7,23975,55,-1.616667
gb,gosport,Gosport,F2,70793,50.8,-1.133333
gb,gotham,Gotham,J9,,52.85,-1.2
zr,bonkwankusu,Bonkwankusu,00,,-3.2333333,19.5166667
ph,garnib,Garnib,48,,16.596877,121.20494
mx,guamuchilito,Guamuchilito,06,,26.216667,-107.783333
gb,gourock,Gourock,V4,,55.95,-4.833333
hu,felsoutaspuszta,Felsoutaspuszta,14,,48.158958,20.010861
uz,dzhar-kishlak,Dzhar-Kishlak,12,,38.3833333,67.9833333
kr,hwagye,Hwagye,16,,35.016667,126.5
pl,walki,Walki,77,,50.049396,21.130617
gb,goxhill,Goxhill,E1,,53.883333,-.2
gb,goxhill,Goxhill,J3,,53.666667,-.333333
gb,grabhir,Grabhir,W8,,58.05,-6.416667
ir,cherat,Cherat,35,,35.977383,52.6825
gb,gracehill,Gracehill,Q9,,54.85,-6.333333
se,ebbetorp,Ebbetorp,15,,59.916667,15
ng,okpe,Okpe,36,,5.485004,6.3278
gb,graffham,Graffham,C3,,52.3,-.283333
gb,graffham,Graffham,P6,,50.933333,-.683333
gb,grafham,Grafham,C3,,52.3,-.283333
jp,gohyakkoku,Gohyakkoku,42,,36.65,137.316667
gb,grafton,Grafton,J1,,52.4,-.633333
gb,grafton,Grafton,P8,,51.333333,-1.633333
ua,minkovka,Minkovka,07,,49.755648,35.624715
gb,grahamston,Grahamston,U9,,56,-3.766667
mm,pangtala,Pangtala,11,,20.0666667,97.3
ph,ganon,Ganon,60,,5.9485,121.4101
nl,geldersche huisjes,Geldersche Huisjes,07,,52.876896,4.789356
gb,gramisdale,Gramisdale,W8,,57.483333,-7.333333
ir,zavar-e bala,Zavar-e Bala,16,,36.053,45.7799
gb,grampound,Grampound,C6,,50.3,-4.9
gb,granby,Granby,J9,,52.9,-.883333
la,ban mouangxoum,Ban Mouangxoum,14,,15.466667,105.75
mx,san pedro totolapan,San Pedro Totolapan,20,,16.666667,-96.3
vn,thay boan,Thay Boan,29,,15.983333,108.116667
md,mirnoye,Mirnoye,90,,45.7375,28.581111
id,bontoballe,Bontoballe,38,,-5.3692,120.3835
gb,grange,Grange,R7,,54.616667,-6.716667
ru,khop-kiber,Khop-Kiber,16,,56.1525,46.7777
pl,szymoniewice szlacheckie duze,Szymoniewice Szlacheckie Duze,78,,51.888474,21.287865
gb,grangetown,Grangetown,K9,,54.583333,-1.15
tr,zivink,Zivink,63,,37.071241,38.502307
pk,bhan daud joya,Bhan Daud Joya,03,,31.969466,71.058192
gb,gransha,Gransha,S3,,54.783333,-5.716667
gb,granstone,Granstone,Y7,,51.966667,-5.062778
gb,granston,Granston,Y7,,51.966667,-5.062778
th,ban thap charoen,Ban Thap Charoen,46,,13.193528,101.419139
gb,grantley,Grantley,J7,,54.116667,-1.65
gb,granton,Granton,U8,,55.966667,-3.216667
tr,persembe,Persembe,37,,41.957691,34.010865
ne,moullela,Moulléla,06,,14.1666667,6.1
pl,dab borowy,Dab Borowy,73,,52.578813,19.384977
pk,tulandi,Tulandi,03,,34.08442,71.818501
vn,ban suoi duc,Ban Suoi Duc,32,,20.916667,104.733333
gb,grasmere,Grasmere,C9,,54.45,-3.016667
gb,grassington,Grassington,J7,,54.066667,-2
gb,grateley,Grateley,F2,,51.166667,-1.6
gb,graveley,Graveley,C3,,52.25,-.166667
tz,kyamboni,Kyamboni,13,,-5.0,39.7833333
gb,graveney,Graveney,G5,,51.316667,.933333
ir,washap,Washap,04,,27.583333,62.666667
gb,graver,Graver,W8,,58.05,-6.416667
ru,mechigma,Mechigma,15,,65.3,-172.083333
id,bongangan,Bongangan,07,,-7.582222,110.157778
hn,sorca,Sorca,16,,14.85,-88.35
gw,jobe cuta,Jobe Cuta,01,,12.0333333,-14.6166667
us,wallace estates,Wallace Estates,MD,,38.7513889,-76.7972222
gb,grays thurrock,Grays Thurrock,O3,,51.483333,.333333
ml,balou,Balou,03,,12.9666667,-11.1
id,pasar minggu,Pasar Minggu,26,,3.0212,99.7931
pe,rumisqui,Rumisqui,06,,-6.0680556,-79.0836111
ru,pogost grigorovo,Pogost Grigorovo,06,,61.375606,46.539122
mz,pueti,Pueti,08,,-17.1508333,34.9969444
th,ban laem fang tai,Ban Laem Fang Tai,38,,13.933806,100.474111
gb,great asby,Great Asby,C9,,54.5,-2.483333
gr,lagoudi,Lagoúdi,47,,36.8486111,27.2002778
gb,great ashfield,Great Ashfield,N5,,52.266667,.933333
ml,sikoro,Sikoro,07,,10.55,-6.6666667
ru,shakhada,Shakhada,17,,42.616667,46.766667
pk,muhammad hasan nutkani,Muhammad Hasan Nutkani,05,,24.559996,69.160367
gb,great bardfield,Great Bardfield,E4,,51.933333,.483333
py,estancia santa teresa,Estancia Santa Teresa,16,,-24.116667,-59.883333
gb,great barr,Great Barr,L7,,52.55,-1.95
lt,gardai,Gardai,61,,55.7333333,23.0666667
tr,alincik,Alincik,43,,39.05,29.899722
gt,pala grande,Pala Grande,21,,15.036389,-91.476111
sa,umm sulaym,Umm Sulaym,10,,24.944188,45.713648
tw,ihsin,Ihsin,04,,23.345,120.3005556
us,whitehurst,Whitehurst,NC,,35.7658333,-77.3325000
gb,great bircham,Great Bircham,I9,,52.85,.633333
mm,kawsein ale,Kawsein Ale,05,,17.2166667,97.6666667
gb,great blencow,Great Blencow,C9,,54.666667,-2.833333
sy,hamret el aadaij,Hamret el Aadaïj,04,,35.8833333,39.15
gb,great bookham,Great Bookham,N7,,51.266667,-.366667
gb,great bowden,Great Bowden,H5,,52.483333,-.9
gb,great braxted,Great Braxted,E4,,51.8,.7
nl,hemelum,Hemelum,02,,52.880718,5.454387
gb,great brickhill,Great Brickhill,B9,,51.95,-.683333
ru,pundury,Pundury,60,,56.986081,27.761657
gb,great brington,Great Brington,J1,,52.266667,-1.016667
za,aston woods,Aston Woods,06,,-26.25219,28.526301
ua,berehovo,Berehovo,25,,48.20555,22.644176
pk,wajani,Wajani,05,,26.59343,68.774241
ng,ovin,Ovin,54,,7.832289,5.238195
id,kemawi,Kemawi,07,,-7.197222,110.3125
us,vancourt,Vancourt,TX,,31.3427778,-100.1766667
pk,bahim yar khan,Bahim Yar Khan,04,,28.419865,70.303449
in,donga,Donga,39,,30.418333,77.954722
hn,cubit,Cubit,13,,14.4166667,-88.75
ng,agbo,Agbo,36,,6.266193,6.150523
gb,great chew,Great Chew,A4,,51.366111,-2.610278
tg,woume,Woumé,18,,6.5,0.9166667
us,crawfordsville,Crawfordsville,IN,15066,40.0411111,-86.8744444
ru,zasypye,Zasypye,42,,59.825342,33.430255
ph,tigbalua,Tigbalua,06,,10.7624,122.019
ua,ostobuz,Ostobuz,15,,50.366667,23.883333
zm,munte,Munte,01,,-14.0666667,25.4333333
gb,great cowden,Great Cowden,E1,,53.866667,-.116667
kh,phum phchal,Phum Phchal,17,,13.35,105.9166667
tr,karaali,Karaali,23,,38.47,38.903889
gb,great crosby,Great Crosby,L8,,53.483333,-3.016667
pe,la florida,La Florida,06,,-6.8697222,-79.1211111
us,furnace,Furnace,MD,,39.5833333,-76.4955556
ml,yeguetere,Yéguétéré,07,,13.4333333,-8.1833333
gb,great dodford,Great Dodford,Q4,,52.35,-2.1
gr,galatsi,Galátsi,35,,38.0166667,23.75
us,archer,Archer,WV,,39.5105556,-80.5952778
gb,great dunmow,Great Dunmow,E4,,51.883333,.366667
ru,berezutskoye,Berezutskoye,41,,51.7419,35.7424
so,gool weeyne,Gool Weeyne,03,,9.4166667,49.0833333
ru,prirechnaya,Prirechnaya,39,,55.628056,95.398056
tr,aciksaray,Aciksaray,50,,38.784123,34.833591
ge,dzhavakhiantkari,Dzhavakhiantkari,19,,42.1075,44.6672222
il,bammaavaq,Bammaavaq,03,,32.729444,35.170556
jp,nju,Nju,47,,26.236944,127.771111
sy,sabahiye,Sabahîyé,01,,37.0,40.9833333
ng,yankuzau,Yankuzau,57,,11.939193,7.067121
gb,greatford,Greatford,H7,,52.683333,-.383333
gb,great fransham,Great Fransham,I9,,52.683333,.783333
ro,ogoarele,Ogoarele,38,,45.833333,26.716667
lr,sangopli,Sangopli,09,,7.1069444,-8.6766667
la,muang thong,Muang Thong,13,,18.4,101.183333
gh,abohyire,Abohyire,08,,7.3166667,0.3666667
sy,baidar el blate,Baïdar el Blâte,02,,35.4166667,36.1
lv,lidtsiems,Lidtsiems,29,,57.1,22.7333333
kz,kulagino,Kulagino,06,,48.370833,51.556944
ru,bukishino,Bukishino,47,,55.3,39.25
ma,gourart,Gourart,47,,31.489721,-9.049721
id,tompo,Tompo,21,,-.0593,119.6407
gb,great hallingbury,Great Hallingbury,E4,,51.833333,.183333
gb,greatham,Greatham,F2,,51.05,-.9
us,saint stephens,Saint Stephens,VA,,38.6958333,-77.6686111
gw,bure,Burè,04,,11.8833333,-14.8
th,ban khun mae la noi,Ban Khun Mae La Noi,01,,18.617139,98.116139
mm,seinye sandaik,Seinye Sandaik,09,,18.8666667,96.1666667
se,storsjo,Storsjö,07,,62.8,13.066667
ru,bolshoy makapelem,Bolshoy Makapelem,51,,55.062729,43.683568
gb,great holland,Great Holland,E4,,51.816667,1.2
gb,great horkesley,Great Horkesley,E4,,51.933333,.866667
ru,yuzhnyy,Yuzhnyy,51,,56.15,44.133333
kn,wingfield manor,Wingfield Manor,13,,17.3333333,-62.7833333
us,bear grass,Bear Grass,NC,,35.7661111,-77.1277778
sn,keur badel,Keur Badel,08,,15.4,-15.9
gb,great hucklow,Great Hucklow,D3,,53.3,-1.75
mm,kyaga,Kyaga,08,,21.4666667,96.2166667
gb,great kimble,Great Kimble,B9,,51.733333,-.8
gb,great kyre,Great Kyre,Q4,,52.266667,-2.55
kz,chushenay,Chushenay,01,,43.283333,79.316667
th,ban bang krathiam bon,Ban Bang Krathiam Bon,42,,13.61625,100.815611
gb,great limber,Great Limber,H7,,53.55,-.283333
gb,great linford,Great Linford,I6,,52.066667,-.75
gb,great livermere,Great Livermere,N5,,52.3,.766667
ie,graffin,Graffin,26,,52.8419444,-7.7761111
ye,mahall `arir,Mahall `Arir,08,,15.2858333,42.9255556
gb,great maplestead,Great Maplestead,E4,,51.966667,.65
mg,tianarivo,Tianarivo,05,,-18.5833333,46.8333333
ly,ar rajmah,Ar Rajmah,02,,32.0666667,20.35
gb,great meols,Great Meols,Q1,,53.4,-3.166667
gb,great milton,Great Milton,K2,,51.716667,-1.083333
mz,chapi,Chapi,01,,-13.1619444,39.1888889
gb,great mitton,Great Mitton,H2,,53.833333,-2.433333
mt,paula,Paula,00,,35.873056,14.498889
gb,great moulton,Great Moulton,I9,,52.466667,1.183333
ph,talo-ao,Talo-ao,02,,8.953889,125.423889
us,bonnie brae subdivision,Bonnie Brae Subdivision,GA,,32.4836111,-83.7925000
tr,koroglu,Koroglu,58,,39.36732,37.380267
gb,great oakley,Great Oakley,E4,,51.9,1.2
ir,sarab-e bayenchqolu,Sarab-e Bayenchqolu,16,,35.5387,47.2343
gb,great offley,Great Offley,F8,,51.916667,-.333333
pl,brzesc kujawski,Brzesc Kujawski,73,,52.603298,18.901994
gb,great ormside,Great Ormside,C9,,54.533333,-2.466667
kh,phumi ta am,Phumi Ta Am,19,,10.7,104.7833333
ml,siriba sobala,Siriba Sobala,06,,12.1358333,-7.3091667
gb,great oxendon,Great Oxendon,J1,,52.433333,-.916667
gb,great packington,Great Packington,P3,,52.45,-1.65
gb,great palgrave,Great Palgrave,I9,,52.666667,.733333
gb,great parndon,Great Parndon,E4,,51.766667,.083333
th,ban oi noi,Ban Oi Noi,32,,15.166667,100.233333
ru,sumezhka,Sumezhka,62,,54.0347,42.1636
mx,rancho nuevo,Rancho Nuevo,18,,20.95,-104.475
se,forsbackheden,Forsbäckheden,10,,60.466667,13.95
mq,glotin,Glotin,00,,14.6833333,-61.0
my,kampung gumum,Kampung Gumum,06,,3.4376,102.9337
gb,great rowsley,Great Rowsley,D3,,53.183333,-1.616667
kp,pongdoktong,Pongdoktong,11,,39.9166667,125.3516667
mx,teocalcingo,Teocalcingo,15,,18.683333,-99.866667
gb,great salkeld,Great Salkeld,C9,,54.716667,-2.7
gb,great sampford,Great Sampford,E4,,51.983333,.4
gb,great sankey,Great Sankey,P2,43793,53.383333,-2.616667
sy,beit obeida,Beït Obeïda,02,,35.7833333,35.9333333
id,payalabe,Payalabe,01,,5.892222,95.335833
iq,hamam ali,Hamam Ali,15,,36.1663889,43.2569444
ir,ramengan,Ramengan,41,,32.2586,59.5912
mn,yoroogiin altanii gadzar,Yöröögiin Altanii Gadzar,16,,49.3,107.2333333
gb,great snoring,Great Snoring,I9,,52.866667,.883333
id,condetbatuampar,Condetbatuampar,30,,-6.274167,106.863056
pk,dumali,Dumali,04,,33.098026,73.090091
ru,rodinka,Rodinka,51,,57.410132,43.560659
lt,birzhu laukas,Birzhu Laukas,62,,55.4741667,22.2436111
my,kampung lubuk mandi,Kampung Lubuk Mandi,06,,3.433333,101.9
gb,great strickland,Great Strickland,C9,,54.6,-2.683333
kp,piyangdong,Piyangdong,09,,38.5744444,127.7458333
md,malayeshty,Malayeshty,82,,47.463056,28.663611
la,muong cham,Muong Cham,04,,18.716667,104.816667
gb,great swinburn,Great Swinburn,J6,,55.066667,-2.1
ru,desyatskoye,Desyatskoye,42,,59.75,29.416667
gb,great tey,Great Tey,E4,,51.9,.75
in,kandhesi pachar,Kandhesi Pachar,36,,26.7526,79.1944
gr,tsouka,Tsoúka,10,,39.8505556,21.7886111
id,rancahmaneh,Rancahmaneh,30,,-7.3533,108.6067
ua,lypetska polyana,Lypetska Polyana,25,,48.3369,23.35901
it,casona,Casona,20,,45.09,12.075
ni,las mesas,Las Mesas,12,,12.9425,-86.0147222
ua,iskovtsysenchanskiye,IskovtsySenchanskiye,18,,50.262745,33.212798
pl,kozienin,Kozienin,74,,51.367606,20.115963
gb,great washbourne,Great Washbourne,E6,,52.016667,-2.016667
gb,great welnetham,Great Welnetham,N5,,52.183333,.766667
gb,great wigborough,Great Wigborough,E4,,51.8,.85
gb,great wilbraham,Great Wilbraham,C3,,52.183333,.25
ro,isvoarele,Isvoarele,18,,45.55,27.766667
tr,khararysh,Khararysh,80,,37.6075,42.055278
id,koekoemoetoek,Koekoemoetoek,29,,1.366667,127.866667
gb,greatworth,Greatworth,J1,,52.066667,-1.183333
gb,great wratting,Great Wratting,N5,,52.1,.45
id,silalangu,Silalangu,33,,-6.383333,106.4
ru,tolshcha pervaya,Tolshcha Pervaya,06,,61.620489,46.031332
ht,bois mulet,Bois Mulet,12,,18.3833333,-74.2666667
se,ubblixbo,Ubblixbo,21,,60.216667,17.416667
gb,greencastle,Greencastle,S9,,54.033333,-6.1
hr,mala hrastalnica,Mala Hrastalnica,20,,45.65,16.5
gb,greencastle,Greencastle,T3,,54.683333,-7.066667
gb,greenfield,Greenfield,K1,,53.533333,-2.016667
ru,slivki,Slivki,76,,54.2858,38.2381
ml,tuna,Tuna,07,,13.1166667,-5.8333333
ng,tambo,Tambo,40,,13.161067,4.358746
sy,qrousso el faouqa,Qroûsso el Faouqa,02,,35.45,36.0
sn,grand medine,Grand Médine,01,,14.7491667,-17.4488889
gb,greenhead,Greenhead,J6,,54.966667,-2.516667
gb,greenhill,Greenhill,G5,,51.359722,1.108333
pe,castillo,Castillo,20,,-5.2,-80.6333333
id,sumurbatu kaler,Sumurbatu Kaler,33,,-6.5674,105.7988
gb,greenhow,Greenhow,J7,,54.066667,-1.816667
gb,greenhow hill,Greenhow Hill,J7,,54.066667,-1.816667
gb,greenisland,Greenisland,R4,,54.7,-5.866667
gb,greenland,Greenland,V3,,58.583333,-3.316667
mg,antetesompafana,Antetesompafana,01,,-15.95,50.15
vu,ouo-ouo,Ouo-Ouo,10,,-15.8833333,167.2
kp,pakkatpinjang,Pakkatpinjang,12,,38.9333333,125.85
kr,wondang,Wondang,17,,36.406422,127.241383
th,ban ku,Ban Ku,29,,14.504972,103.485667
ng,kutembeya,Kutembeya,27,,10.404597,12.248279
it,san lazzaro,San Lazzaro,08,,44.266667,9.466667
gb,greetham,Greetham,L4,,52.7,-.616667
gt,chiscu,Chiscú,04,,14.75,-89.633333
gb,greinton,Greinton,M3,,51.123333,-2.840556
sr,pauwie,Pauwie,18,,4.1833333,-54.6
tw,tanghsia,Tanghsia,04,,23.5,120.5666667
ir,ebrahim kandi,Ebrahim Kandi,32,,39.018333,47.945278
mx,gasnill,Gasnill,02,,31.766667,-115.733333
pe,santa ines,Santa Inés,09,,-13.2,-75.0833333
km,itsandra,Itsandra,02,,-11.6711111,43.2547222
gb,gresley,Gresley,D3,,52.75,-1.566667
ng,fotoriji,Fotoriji,48,,7.283333,4.716667
ru,dvoriki,Dvoriki,43,,52.633704,38.771838
us,cougar,Cougar,CA,,41.5833333,-122.1841667
gb,gretton,Gretton,E6,,51.966667,-1.983333
th,ban nong kham,Ban Nong Kham,04,,19.531722,100.927056
mz,chicutso,Chicutso,04,,-24.4855556,32.5166667
gb,greyabbey,Greyabbey,Q7,,54.533333,-5.566667
my,kampung hutan tengar,Kampung Hutan Tengar,02,,6.213327,100.25689
th,ban ta yia,Ban Ta Yia,30,,14.768195,104.277917
in,tangipur,Tangipur,10,,30.1153,76.6471
ly,qaryat al qaddahiyah,Qaryat al Qaddahiyah,58,,31.3666667,15.2333333
gb,grimersta,Grimersta,W8,,58.166667,-6.733333
gb,grimesthorpe,Grimesthorpe,L9,,53.4,-1.433333
id,sragil,Sragil,07,,-6.7135,111.2816
gb,grimoldby,Grimoldby,H7,,53.366667,.083333
gb,grimsargh,Grimsargh,H2,,53.8,-2.633333
us,whitmarsh junction,Whitmarsh Junction,WA,,48.4658333,-122.5355556
gb,grimsthorpe,Grimsthorpe,H7,,52.783333,-.433333
mn,yunshyyn-khid,Yunshyyn-Khid,18,,47.2166667,108.0833333
pk,qayyumabad,Qayyumabad,03,,34.475556,72.475833
gb,grimston,Grimston,I9,,52.766667,.55
ro,repedea,Repedea,40,,45.916667,27.033333
us,kennebec,Kennebec,SD,,43.9036111,-99.8613889
rs,nagykikinda,Nagykikinda,00,,45.829722,20.465278
gb,grindleton,Grindleton,H2,,53.9,-2.366667
ru,bogatyri,Bogatyri,33,,57.1438,50.0892
mx,el escobar,El Escobar,25,,25.983333,-107.283333
gb,grindon,Grindon,N1,,53.083333,-1.866667
gb,grindon,Grindon,N3,,54.616667,-1.383333
gb,gringley,Gringley,J9,,53.4,-.9
id,maikoor,Maikoor,28,,-6.133333,134.1
ye,lakmat al afshakh,Lakmat al Afshakh,06,,13.7666667,44.8
tr,ikizce,Ikizce,04,,39.801944,42.896667
gb,gristhorpe,Gristhorpe,J7,,54.216667,-.333333
id,cendali,Cendali,30,,-6.5,106.683333
id,peremese,Peremese,18,,-8.4793,121.2168
jp,kido,Kido,35,,35.2,135.916667
kz,vishnevka,Vishnevka,16,,53.927778,70.117778
gb,groeslon,Groeslon,Y2,,53.066667,-4.283333
ru,brigadnoye,Brigadnoye,23,,54.82038,21.052289
gb,groombridge,Groombridge,E2,,51.1,.183333
sd,`adar,`Adar,27,,14.55,32.7
id,wonolopo,Wonolopo,08,,-8.2529,112.5523
gb,grosmont,Grosmont,Y4,,51.916667,-2.866667
id,bonor lor,Bonor Lor,07,,-7.599722,110.477222
ru,novonikolsk,Novonikolsk,59,4066,43.85,131.866667
nl,jubbegastercompagnie,Jubbegastercompagnie,02,,52.983333,6.1
tw,chepingliao,Chepingliao,03,,25.1166667,121.6
ve,san luis,San Luis,21,,9.3383333,-70.6
ru,ivdinskaya,Ivdinskaya,20,,54.318,104.7625
gb,gruamabeag,Gruamabeag,V3,,58.316667,-4.333333
us,booher corners,Booher Corners,PA,,41.3477778,-80.0175000
gb,gruinart,Gruinart,T8,,55.816667,-6.35
gb,grumbeg,Grumbeg,V3,,58.316667,-4.333333
ng,tabanni,Tabanni,51,,13.151848,5.537221
gb,guestling,Guestling,E2,,50.883333,.633333
mz,muaco,Muaco,09,,-16.5686111,37.91
gb,guide bridge,Guide Bridge,O1,,53.466667,-2.116667
lt,piktagalio,Piktagalio,60,,55.55,25.0
pl,witkowo,Witkowo,82,,54.618121,17.239271
us,bay plantation,Bay Plantation,AR,,34.9655556,-91.3838889
sr,suhoza,Suhoza,15,,5.3666667,-55.0
in,purwa amlian,Purwa Amlian,36,,26.6229,79.8203
ru,krynka,Krynka,61,,47.608303,38.796855
gb,guisborough,Guisborough,K9,,54.533333,-1.15
id,pangaduan,Pangaduan,30,,-6.83,107.921111
sa,umm as salam,Umm as Salam,14,,21.448861,39.391245
ve,don pedro,Don Pedro,05,,7.3522222,-71.06
gb,gulladuff,Gulladuff,S7,,54.833333,-6.6
gb,gullane,Gullane,U6,2133,56.033333,-2.816667
gb,gulval,Gulval,C6,,50.133333,-5.516667
ng,tayueh sawaa,Tayueh Sawaa,26,,7.15,8.55
se,tossene,Tossene,28,,58.45,11.366667
us,donwood,Donwood,WV,,38.1622222,-81.3322222
mg,sandravola,Sandravola,05,,-19.8833333,47.6666667
gb,gunnerton,Gunnerton,J6,,55.05,-2.15
mx,hediondas,Hediondas,19,,25.833333,-100.433333
gb,gunnislake,Gunnislake,C6,,50.533333,-4.216667
ru,vinogradovo,Vinogradovo,47,,55.42723,38.535721
gb,gunwalloe,Gunwalloe,C6,,50.033333,-5.266667
in,kargari,Kargari,35,,23.85,81.583333
tr,budaklar,Budaklar,85,,41.135774,31.957806
jp,amagoya,Amagoya,15,,37.852461,136.922469
tw,chuntutsun,Chüntutsun,04,,24.2666667,120.65
ie,milltown,Milltown,30,,52.5866667,-6.4738889
id,kadiran,Kadiran,07,,-6.9605,109.7786
gb,guyhirn,Guyhirn,C3,,52.616667,.066667
ua,limany,Limany,16,,46.69646,31.469379
gb,gwaenynog,Gwaenynog,X9,,53.166667,-3.45
zr,luku,Luku,03,,-6.9666667,22.5833333
id,cibogo landeuh,Cibogo Landeuh,30,,-7.2253,108.5673
gb,gwaynynog,Gwaynynog,X9,,53.166667,-3.45
gb,gwbert,Gwbert,X6,,52.116667,-4.683333
ve,los bucaritos,Los Bucaritos,03,,7.8,-69.6666667
id,cisalopawarung,Cisalopawarung,30,,-6.732778,106.821389
ye,al makhaliqah,Al Makhaliqah,12,,16.0166667,42.85
ua,kastropol,Kastropol,11,,44.4,33.9
ru,snezhnaya,Snezhnaya,20,,51.4686,104.6272
gb,gwent,Gwent,Y4,,51.666667,-3
gb,gwernogle,Gwernogle,X7,,51.983056,-4.140278
so,degta reidab,Degta Reidab,06,,2.85,42.2833333
gb,gwinear,Gwinear,C6,,50.183333,-5.366667
gb,gwithian,Gwithian,C6,,50.216667,-5.383333
se,munkbyn,Munkbyn,24,,62.416667,16.366667
gb,gwyddelwern,Gwyddelwern,X9,,53,-3.383333
mk,umovo,Umovo,92,,41.8680556,21.4286111
pe,quinsacollo,Quinsacollo,21,,-16.9166667,-69.8333333
gb,gwydyr,Gwydyr,Y2,,52.983333,-4.416667
ph,paniqui,Paniqui,19,,13.9082,124.1474
my,kampong rinching ulu,Kampong Rinching Ulu,12,,2.921726,101.861503
gb,gyfelia,Gyfelia,Z4,,53,-3
za,tsitsa hill,Tsitsa Hill,05,,-31.233333,28.85
tr,alkatyan,Alkatyan,23,,38.601281,39.920173
us,iverson,Iverson,MN,,46.6663889,-92.5291667
pk,manan wan,Manan Wan,04,,32.5539,72.131922
tn,ksour djelidatt,Ksour Djelidatt,34,,32.9,10.533333
za,ha-mantsha,Ha-Mantsha,09,,-23.07904,29.774448
in,gariparon,Gariparon,02,,17.716667,83.283333
ma,douar ti rhorba,Douar Ti Rhorba,46,,34.096115,-5.320721
iq,khashiyyan,Khashiyyan,14,,31.4666667,47.2
so,laas cadde,Laas Cadde,14,,8.5833333,46.8833333
gb,hackleton,Hackleton,J1,,52.183333,-.816667
hu,olahtanya,Oláhtanya,18,,48.066667,21.8
gb,hackney,Hackney,E8,,51.55,-.05
gb,hackthorn,Hackthorn,H7,,53.316667,-.516667
id,tjioejah,Tjioejah,30,,-7.1363,108.4396
gb,haddenham,Haddenham,B9,,51.766667,-.916667
jp,kami-michikawa,Kami-michikawa,36,,34.633333,132.083333
sd,arado,Arado,28,,4.0333333,31.5166667
ir,akbarabad-e sofla,Akbarabad-e Sofla,23,,33.4022,48.6649
gb,haddington,Haddington,U6,8780,55.916667,-2.75
pe,orlaque,Orlaque,18,,-16.5852778,-71.2330556
ng,ngor,Ngor,28,,5.333333,7.166667
vn,tong ly,Tông Lý,04,,17.866667,106.4
gb,hadfield,Hadfield,D3,,53.466667,-1.966667
us,skeetertown,Skeetertown,VA,,36.6602778,-76.5800000
lt,baciunai,Baciunai,61,,55.8666667,23.3333333
gb,hadley,Hadley,O2,,52.7,-2.483333
ml,kouroublo,Kouroublo,03,,14.4166667,-11.5166667
ma,igoujjimen,Igoujjimen,55,,29.63,-9.31
zr,iniele,Iniele,00,,2.15,18.4
ru,mari-dubniki,Mari-Dubniki,33,,57.272107,47.542842
lt,papeciu,Papeciu,56,,54.3166667,23.7833333
td,galimbe,Galimbé,11,,9.5833333,19.2
kr,haeunni,Haeunni,16,,35.058056,126.451389
gb,hagley,Hagley,Q4,,52.433333,-2.116667
gb,hagwothingham,Hagwothingham,H7,,53.2,.016667
gb,haigh,Haigh,A3,,53.6,-1.55
gb,haigh,Haigh,B1,,53.6,-2.583333
pk,karumb usman,Karumb Usman,04,,33.240288,73.210119
tw,puyenlan,Puyenlan,04,,24.1166667,120.7833333
tr,ulucak,Ulucak,21,,38.573333,40.731944
id,koetatinggi,Koetatinggi,26,,2.4551,98.0639
kr,sulsalli,Sulsalli,03,,35.957778,126.866111
kz,berezovskiy,Berezovskiy,11,,53.435278,76.838611
gb,hale,Hale,C9,,54.2,-2.75
ng,madiko koi,Madiko Koi,46,,10.985365,10.36431
mx,el tascate,El Táscate,10,,26.2,-105.116667
mm,wan lu-yoi,Wan Lu-yoi,11,,20.2333333,97.8833333
mz,murravorro,Murravorro,09,,-15.5647222,37.7261111
gb,hales,Hales,I9,,52.516667,1.5
pl,stanice,Stanice,83,,50.201583,18.513782
th,ban khok,Ban Khok,56,,13.233333,99.85
gb,halewood,Halewood,G9,,53.366667,-2.816667
mx,paso julian,Paso Julián,30,,18.5125,-96.391667
gb,halford,Halford,P3,,52.1,-1.616667
no,flatoya,Flatøya,18,,69.05,16.5
gb,halfway,Halfway,Y8,,51.966667,-3.7
kp,taedari,Taedari,15,,39.4166667,125.9833333
ru,nizhnyaya poludenovka,Nizhnyaya Poludenovka,39,,53.8233,93.0519
ru,krasnyy ray,Krasnyy Ray,09,,50.553333,37.931389
pe,eusaca,Eusaca,11,,-14.8461111,-75.1913889
gb,halkyn,Halkyn,Y1,,53.216667,-3.183333
pl,miszewo debin,Miszewo Debin,78,,52.63339,20.620689
ph,bantigue,Bantigue,16,,14,123.25
kz,tortqudyq,Törtqudyq,11,,51.713056,74.1925
gb,hallingbury,Hallingbury,E4,,51.833333,.183333
nl,wormenschematen,Wormenschematen,03,,52.2,5.966667
gb,hallington,Hallington,H7,,53.366667,-.05
th,moeangbhayao,Moeangbhayao,41,,19.192028,99.878834
ve,quebrada blanca,Quebrada Blanca,19,,10.1622222,-63.9611111
jm,thornhill,Thornhill,16,,18.15,-77.9666667
mn,bulagan suma,Bulagan Suma,21,,48.8105556,103.5316667
kh,phumi lbaeuk khang tbong,Phumi Lbaeuk Khang Tbong,06,,10.8,104.35
jm,port royal,Port Royal,17,,17.9333333,-76.85
ru,yazovyy,Yazovyy,20,,59.05,112.566667
tr,mirankan,Mirankân,21,,38.216817,41.146018
tz,ichese,Ichese,24,,-7.8,31.7666667
gb,halstock,Halstock,D6,,50.866667,-2.65
sd,martei,Martei,33,,12.8666667,25.6833333
ru,novinki,Novinki,28,,61.088155,32.973359
gb,halton gill,Halton Gill,J7,,54.166667,-2.183333
gb,halton,Halton,B9,,51.783333,-.733333
us,indian hill,Indian Hill,MD,,39.3341667,-76.9469444
hn,el uva,El Uva,08,,13.7030556,-87.3597222
gb,halton holegate,Halton Holegate,H7,,53.15,.116667
lt,rukiskio,Rukiskio,60,,55.6333333,24.75
gb,halton west,Halton West,J7,,53.983333,-2.25
us,nobscot,Nobscot,OK,,35.8486111,-98.7352778
gb,halvergate,Halvergate,I9,,52.6,1.566667
gb,halveston hill-on-tees,Halveston Hill-on-Tees,N3,,54.6,-1.216667
gb,halwell,Halwell,D4,,50.366667,-3.733333
mx,la maquina,La Máquina,30,,20.729167,-97.9
gh,emli nyagbo,Emli Nyagbo,08,,6.8,0.3666667
gb,hambledon,Hambledon,F2,,50.916667,-1.066667
ps,nahal ro`i,Nahal Ro`i,00,,32.233333,35.483333
se,gettero,Getterö,16,,58.283333,16.85
ir,darreh tangi,Darreh Tangi,03,,31.554008,50.401158
pk,joota,Joota,04,,31.05,73.45
ir,kheyna majid,Kheyna Majid,33,,37.9583,46.7232
lr,nembo,Nembo,09,,6.5244444,-8.8416667
id,pasirawi,Pasirawi,30,,-6.183611,106.5325
zm,chelo,Chelo,07,,-9.3,30.0833333
za,liebendal,Liebendal,05,,-31.717733,25.925149
id,aruan,Aruan,28,,-3.683333,130.85
gb,hamilton,Hamilton,W5,,55.766667,-4.033333
id,ngrawing,Ngrawing,07,,-7.1002,110.6719
gb,hammer,Hammer,Z4,,52.95,-2.833333
gb,hammersmith,Hammersmith,F1,,51.5,-.233333
pl,lembork,Lembork,82,,54.539214,17.750121
gb,hammerwich,Hammerwich,N1,,52.65,-1.883333
ua,sadovyy,Sadovyy,08,,47.209857,34.508043
ml,ammdalai,Ammdalaï,05,,13.5333333,-6.05
tw,wanlili,Wanlili,04,,22.8166667,120.2833333
gb,hample,Hample,F2,,50.85,-1.316667
mx,hueycatenango,Hueycatenango,12,,17.483333,-99.1
ir,armu,Armu,35,,36.74475,50.54576
ph,sto rosario,Sto Rosario,11,,9.9924,124.0633
ng,ovbiokhuan,Ovbiokhuan,37,,6.931674,5.939762
mg,nosy-ambondro,Nosy-Ambondro,06,,-21.7,43.8666667
ua,pervoye sovetskoye,Pervoye Sovetskoye,07,,50.230833,36.852778
gb,hampton bishop,Hampton Bishop,F7,,52.05,-2.633333
jp,todoriki,Todoriki,03,,40.7,139.983333
th,ban saphan rot fai,Ban Saphan Rot Fai,44,,13.846195,101.088195
pk,ghotri,Ghotri,04,,30.488363,70.258469
se,ostervallsta,Östervallsta,24,,62.483333,16.233333
gb,hampton lucy,Hampton Lucy,P3,,52.2,-1.616667
ru,vakhrushevo,Vakhrushevo,13,4152,55.2295,61.7487
us,verona,Verona,KY,,38.8183333,-84.6608333
gb,hamsterley,Hamsterley,D8,,54.683333,-1.816667
gb,ham street,Ham Street,G5,,51.05,.85
ir,cheshmeh-ye ruzan,Cheshmeh-ye Ruzan,13,,34.2912,47.0395
gb,hamworthy,Hamworthy,K5,,50.716667,-2
gb,hanborough,Hanborough,K2,,51.8,-1.383333
gb,hanbury,Hanbury,N1,,52.833333,-1.733333
us,wells,Wells,NY,,43.3958333,-74.2900000
gb,handcross,Handcross,P6,,51.05,-.183333
gb,handforth,Handforth,Z7,,53.35,-2.216667
pl,skowronki,Skowronki,85,,54.005638,22.524944
lb,hereh,Hereh,03,,34.3,35.7166667
gb,hanging langford,Hanging Langford,P8,,51.133333,-1.95
sk,honneshay,Honneshay,01,,48.7,18.9
mx,los amigos,Los Amigos,02,,32.070278,-115.201944
gb,hanley castle,Hanley Castle,Q4,,52.083333,-2.233333
gb,hanley child,Hanley Child,Q4,,52.283333,-2.516667
rs,sadovine,Sadovine,00,,43.710278,19.984444
gb,hanmer,Hanmer,Z4,,52.95,-2.833333
ru,kapustniki,Kapustniki,06,,63.5916,40.3368
tr,cukurkonak,Çukurkonak,04,,39.555537,42.646572
ye,labirah,Labirah,07,,14.1347222,45.8194444
ml,tamaro,Tamaro,05,,13.15,-4.9
lk,halkandawila,Halkandawila,36,,6.5166667,80.0166667
gb,hanthorpe,Hanthorpe,H7,,52.783333,-.383333
gb,hants,Hants,F2,,51,-1.25
vn,ap vinh thoi,Ap Vinh Thoi,01,,10.45,105.266667
ph,corporacion,Corporacion,P1,,8.0234,123.5842
gb,hanwood,Hanwood,L6,,52.683333,-2.816667
ng,tallasa,Tallasa,55,,9.966667,11.690833
gb,happisburgh,Happisburgh,I9,,52.816667,1.566667
gb,hapton,Hapton,H2,,53.783333,-2.316667
pl,tuchomie,Tuchomie,82,,54.114364,17.335272
gb,harbledown,Harbledown,G5,,51.283333,1.033333
gb,harborne,Harborne,A7,,52.45,-1.95
id,masekan dua,Masekan Dua,08,,-7.518889,111.216944
gb,harborough magna,Harborough Magna,P3,,52.4,-1.3
in,kalwar,Kalwar,12,,33.197222,74.4375
id,nagur,Nagur,01,,3.5029,99.1971
gb,harbury,Harbury,P3,,52.233333,-1.45
kr,tunggae,Tunggae,12,,37.451389,126.405
gb,hardenhuish,Hardenhuish,P8,,51.470278,-2.131111
id,simpu,Simpu,07,,-7.606667,110.063611
us,warner,Warner,OK,,35.4941667,-95.3052778
ru,grebennikov,Grebennikov,84,,49.833333,45.666667
gn,diaraguella,Diaraguella,19,,10.6,-9.9666667
pk,dinpur,Dinpur,04,,28.66221,70.628579
gb,hardwicke,Hardwicke,C3,,52.2,.016667
uy,lapuente,Lapuente,13,,-31.4166667,-54.9166667
gb,hardwick,Hardwick,B9,,51.85,-.833333
hr,kostanjevac,Kostanjevac,07,,45.8333333,15.6
ph,kibasong,Kibasong,57,,7.366667,124.733333
jo,ez zimaliya,Ez Zimaliya,02,,32.50238,35.601562
ma,tasdert,Tasdert,55,,30.526608,-9.263468
gb,harefield,Harefield,F9,,51.6,-.483333
gb,harescombe,Harescombe,E6,,51.783333,-2.233333
gw,chitole,Chitole,04,,11.7333333,-14.8166667
hr,bedekovcina gornja,Bedekovcina Gornja,07,,46.05,15.9833333
zr,leseresere,Leseresere,09,,-0.9833333,24.05
pk,chah haji muhammad khan,Chah Haji Muhammad Khan,04,,29.158333,70.363889
gb,hargrave,Hargrave,N5,,52.216667,.583333
gb,hargrave,Hargrave,Z8,,53.15,-2.766667
ht,mate l'ermite,Mate L'ermite,06,,19.25,-72.2833333
ua,maksimovka,Maksimovka,11,,45.769931,33.61834
gb,harkstead,Harkstead,N5,,51.966667,1.2
zr,bokala-bolongo,Bokala-Bolongo,02,,-0.5833333,19.2166667
ua,stalineshty,Stalineshty,03,,48.303885,26.552815
id,soekabihanawa,Soekabihanawa,18,,-9.5,124.95
gb,harlesden,Harlesden,B5,,51.533333,-.25
gb,harlesdon,Harlesdon,B5,,51.533333,-.25
id,tial-serani,Tial-serani,28,,-3.632993,128.330813
lk,ihala diulwewa,Ihala Diulwewa,30,,8.6333333,80.8166667
pg,wangamushi,Wangamushi,11,,-4.3166667,142.4
gb,harlington,Harlington,D5,,53.516667,-1.266667
il,qumiya,Qumiya,03,,32.55,35.383333
lb,es soummaq,Es Soummâq,02,,33.1833333,35.4833333
gb,harlow hill,Harlow Hill,J6,,55,-1.866667
kr,sogwidong,Sogwidong,01,,33.244167,126.530278
ru,karpova,Karpova,10,,52.867199,33.210263
ir,begi,Begi,23,,34.0456,47.9207
ir,qal`eh sarban,Qal`eh Sarban,28,,32.5491,52.2297
ro,bistrita noua,Bistrita Noua,29,,44.366667,24.25
lk,rawita,Rawita,32,,7.3833333,79.95
gb,harome,Harome,J7,,54.216667,-1
gb,harpenden,Harpenden,F8,28966,51.8,-.35
mg,betongolo,Betongolo,03,,-16.55,46.7166667
se,losta,Lösta,07,,63.016667,15.1
jp,dachi,Dachi,09,,35.316667,137.233333
ph,panoon,Panoon,06,,10.6746,122.015
gw,sibija,Sibijã,01,,12.0666667,-14.55
lv,uzhava,Uzhava,33,,57.2333333,21.45
pa,cerro brisa,Cerro Brisa,02,,8.35,-81.95
ir,ab garmeh-ye bar aftab,Ab Garmeh-ye Bar Aftab,23,,33.098222,49.69765
mm,kyauktit,Kyauktit,07,,19.5333333,94.7333333
id,kemalangan,Kemalangan,30,,-6.275,106.503056
gb,harrington,Harrington,H7,,53.216667,.05
gb,harrington,Harrington,J1,,52.4,-.85
kz,karakol,Karakol,07,,49.705278,53.830833
gb,harrogate,Harrogate,J7,87024,53.983333,-1.533333
gb,harrold,Harrold,Z5,,52.183333,-.6
ir,esma`il,Esma`il,22,,30.0764,50.2622
hr,mandaljena,Mandaljena,03,,42.6375,18.1894444
gb,harrowgate hill,Harrowgate Hill,D1,,54.55,-1.55
ph,mulay,Mulay,H2,,13.9824,122.3022
mx,cuatotol,Cuatotol,13,,21.1,-98.816667
vn,dai tri,Dai Tri,29,,15.65,108.366667
gb,harrow wealt,Harrow Wealt,F4,,51.6,-.316667
pl,dzwiersztyny,Dzwiersztyny,85,,53.591344,20.803491
us,ray,Ray,VA,,36.9361111,-79.3111111
ir,behbehan,Behbehan,15,,30.5959,50.2417
gb,hartest,Hartest,N5,,52.133333,.683333
gb,hartfield,Hartfield,E2,,51.083333,.116667
gb,hartford,Hartford,C3,,52.333333,-.15
ru,shapshinskaya,Shapshinskaya,32,,61.090278,69.446389
la,ban na khang,Ban Na Khang,13,,19.083333,101.533333
gb,hart,Hart,F5,,54.716667,-1.266667
mw,muhara,Muhara,28,,-14.8,35.8
za,pelgrims rust,Pelgrims Rust,05,,-31.305735,25.754352
hk,kau lung tong,Kau Lung Tong,00,,22.3333333,114.1833333
mx,chumcampaco,Chumcampaco,26,,27.533333,-110.183333
id,jenggrik,Jenggrik,08,,-7.348056,111.182222
kr,sagidong,Sagidong,20,,35.504754,128.117056
id,sebage,Sebage,17,,-8.4282,116.1744
gh,kunche,Kunche,11,,10.3833333,-2.75
gr,ilias,Ilías,23,,39.4666667,22.2166667
gb,hartley row,Hartley Row,F2,,51.3,-.883333
id,cimentet,Cimentet,30,,-7.4764,107.9261
gb,harton,Harton,M7,,54.966667,-1.4
gb,hartpury,Hartpury,E6,,51.916667,-2.3
gb,hartshill,Hartshill,P4,,51.533333,-1.516667
gb,hartshorne,Hartshorne,D3,,52.766667,-1.516667
ma,meggues,Meggues,55,,30.85889,-8.416537
gb,hartwell,Hartwell,J1,,52.133333,-.85
id,prau,Prau,07,,-6.834,111.1521
mx,colonia luis moya,Colonia Luis Moya,32,,24.116667,-102.883333
gb,harvington,Harvington,Q4,,52.133333,-1.916667
td,asaroa,Asaroa,07,,13.2333333,15.8833333
ru,chelnokovo,Chelnokovo,78,,56.507004,70.535784
gb,harwich,Harwich,E4,,51.95,1.3
ua,vladimirovka,Vladimirovka,04,,47.652035,33.556494
ru,urochishche derevenki,Urochishche Derevenki,77,,57.6355,36.892
ru,karzhimant,Karzhimant,57,,52.780031,45.530993
us,june park,June Park,FL,,28.0719444,-80.6802778
pk,wadda wahan,Wadda Wahan,05,,27.472221,68.162054
id,simarsoittoba,Simarsoittoba,26,,2.5262,98.7179
mw,amon,Amon,20,,-13.3666667,33.8666667
zr,pembe,Pembe,02,,-0.8666667,19.1333333
sy,qaroura,Qâroûra,02,,35.7333333,36.1
gb,hasfield,Hasfield,E6,,51.95,-2.25
gb,haslemere,Haslemere,N7,,51.083333,-.7
id,jerukgamping,Jerukgamping,08,,-7.4164,112.5848
ph,maganuy,Maganuy,56,,6.864722,124.441667
gb,hassocks,Hassocks,P6,,50.916667,-.133333
gb,hassop,Hassop,D3,,53.233333,-1.666667
vn,cu nam,Cu Nam,04,,17.633333,106.416667
pe,el dorado,El Dorado,02,,-10.25,-77.4166667
vn,kon cun,Kon Cun,10,,14.583333,108.083333
gb,hatch beauchamp,Hatch Beauchamp,M3,,50.983333,-3
md,kiriyanka,Kiriyanka,89,,47.255833,28.532778
gb,hatch,Hatch,P8,,51.053889,-2.1075
gb,hatcliffe,Hatcliffe,J2,,53.483333,-.166667
gb,hatfield broad oak,Hatfield Broad Oak,E4,,51.833333,.25
la,ban maloi,Ban Maloi,04,,17.65,105.4
gb,hatfield,Hatfield,F7,,52.233333,-2.616667
kp,posan,Posan,11,,39.75,124.6166667
ir,voyan,Voyan,33,,38.9107,46.7667
id,babakanrehek,Babakanrehek,30,,-6.522222,107.6775
gb,hatford,Hatford,K2,,51.633333,-1.5
ir,ermashan,Ermashan,33,,38.7235,47.1013
gb,hathern,Hathern,H5,,52.783333,-1.25
us,stonebluff,Stonebluff,OK,,35.8858333,-95.7366667
id,samiaji,Samiaji,26,,3.6576,98.7405
gb,hatley,Hatley,C3,,52.133333,-.133333
gb,hatley saint george,Hatley Saint George,C3,,52.133333,-.133333
gb,hatton,Hatton,H7,,53.266667,-.233333
gb,hatton,Hatton,P3,,52.3,-1.65
my,kampung empang,Kampung Empang,07,,4.4794,101.2368
gb,hatton of fintray,Hatton of Fintray,T6,,57.233333,-2.266667
ru,danilkovo,Danilkovo,77,,56.634722,32.939167
gb,haughley,Haughley,N5,,52.216667,.983333
sn,tchabougueul,Tchabougueul,08,,14.9833333,-15.7666667
gb,haugh of urr,Haugh of Urr,U2,,54.966667,-3.85
ru,ukyr,Ukyr,11,,52.5278,111.4084
us,hood river,Hood River,OR,,45.7055556,-121.5202778
tr,ahsunkler,Ahsünkler,77,,40.223513,40.303181
td,dengao,Dengao,11,,9.4666667,18.8333333
ru,kornilovka,Kornilovka,04,,52.912,78.9686
gb,havant,Havant,F2,45574,50.85,-.983333
id,pekajon 2,Pekajon 2,30,,-6.063889,106.549444
lk,bakinidandugollegama,Bakinidandugollegama,35,,7.2833333,81.1333333
sl,salifuya,Salifuya,02,,9.6833333,-11.1666667
mr,gourel mahamoud,Gourel Mahamoud,10,,15.1333333,-12.5166667
in,nihtaur,Nihtaur,36,48394,29.333333,78.383333
zr,mitshibu,Mitshibu,00,,-4.4166667,20.5666667
pk,khiplion,Khiplion,05,,24.5766,70.5829
pt,vilarinho de samarda,Vilarinho de Samardã,21,,41.38226,-7.702895
so,diiqow,Diiqow,04,,3.2166667,43.55
tr,yenice,Yenice,93,,41.019729,31.018807
ro,fitionesti,Fitionesti,38,2853,45.983333,27.05
kz,ayaguzskiy,Ayaguzskiy,15,,47.216667,79.616667
gb,hawes,Hawes,J7,,54.3,-2.2
gb,hawick,Hawick,T9,14053,55.433333,-2.783333
gb,hawkaller,Hawkaller,M3,,50.983333,-3.183333
gb,hawkchurch,Hawkchurch,D4,,50.8,-2.933333
ru,myshinka,Myshinka,09,,51.134444,37.454444
se,sjoviken,Sjöviken,24,,62.589722,18.013889
ru,dyukovskaya,Dyukovskaya,56,,52.4837,36.8083
la,ban tiam houat,Ban Tiam Houat,03,,20.016667,103.866667
ru,khripikhi,Khripikhi,37,,58.194556,41.63475
gb,hawkinge,Hawkinge,G5,,51.1,1.166667
iq,al ju`ayfar,Al Ju`ayfar,07,,33.3333333,44.4833333
kh,phumi nesat,Phumi Nesat,06,,10.65,103.5166667
om,tawi al badu,Tawi al Badu,02,,23.5275,57.3308333
ru,gostovets,Gostovets,52,,58.1,31.9
kr,tangjonggok,Tangjonggok,06,,38.189167,128.314722
gh,bima number 2,Bima Number 2,02,,6.85,-1.3333333
us,pellville,Pellville,KY,,37.7522222,-86.8136111
in,raisar,Raisar,24,,27.15,76.116667
no,naersnes,Nærsnes,04,,59.76,10.498333
kr,oedo,Oedo,20,,35.340278,128.041667
gb,hawsker,Hawsker,J7,,54.45,-.566667
gb,hawthornden,Hawthornden,V5,,55.85,-3.133333
gb,hawthorn,Hawthorn,D8,,54.8,-1.35
mm,gwazon,Gwazon,01,,19.0833333,94.2166667
kp,sangilli,Sangilli,03,,40.4980556,128.1444444
it,sant'anna,Sant'Anna,15,,38.05,14.6
gb,haxey,Haxey,J3,,53.483333,-.833333
ru,razdelnyy,Razdelnyy,33,,59.866667,47.966667
gb,haydock,Haydock,M9,,53.466667,-2.666667
gb,haydon bridge,Haydon Bridge,J6,,54.966667,-2.233333
mx,pochotes,Pochotes,25,,24.967222,-107.477222
us,lyndonville,Lyndonville,NY,,43.3266667,-78.3891667
gb,hayes,Hayes,B8,,51.366667,.016667
sy,seraqab,Seraqab,12,,35.8636111,36.8005556
gb,hayfield,Hayfield,D3,,53.383333,-1.95
gb,hayfield,Hayfield,T8,,56.35,-5.116667
pk,walang haqdao kili,Walang Haqdao Kili,02,,31.07578,67.41764
tr,tayleli,Tayleli,10,,39.467063,26.927897
tr,halilalan,Halilalan,60,,40.459167,36.4625
gb,hayling,Hayling,F2,,50.783333,-.966667
ly,susah,Susah,36,,32.8966667,21.9630556
kp,sonsacham,Sonsacham,11,,39.8705556,126.0122222
us,lime,Lime,OR,,44.4066667,-117.3102778
gb,hayscastle cross,Hayscastle Cross,Y7,,51.885,-5.031667
ru,veseloyarskoye,Veseloyarskoye,04,,51.283611,81.105556
gb,hayton,Hayton,C9,,54.9,-2.75
zr,mukele,Mukele,03,,-5.7963889,22.4925
pt,cortezorrinha,Cortezorrinha,03,,37.558449,-8.1458
ua,timoshevka,Timoshëvka,01,,48.969872,32.06791
gb,haywood,Haywood,W5,,55.766667,-3.633333
mx,zimatlan de alvarez,Zimatlán de Álvarez,20,,16.866667,-96.783333
gb,hazelbeech,Hazelbeech,J1,,52.383333,-.95
id,batannyuh kaler,Batannyuh Kaler,02,,-8.4258,115.6161
ma,chenina,Chenina,51,,32.221167,-9.040659
gb,hazelwood,Hazelwood,D3,,53.016667,-1.5
gb,hazlehead bridge,Hazlehead Bridge,A3,,53.516667,-1.716667
gb,heacham,Heacham,I9,,52.916667,.483333
gb,headbourne worthy,Headbourne Worthy,F2,,51.083333,-1.316667
gb,headcorn,Headcorn,G5,,51.15,.616667
zm,kasempa,Kasempa,05,,-14.2166667,27.6166667
id,bojongreungit,Bojongreungit,30,,-6.945833,107.784167
gb,headley,Headley,F2,,51.116667,-.816667
tr,eskiyol,Eskiyol,69,,39.961944,39.595278
kz,imeni stalina,Imeni Stalina,16,,53.063889,68.643333
zm,mungule court,Mungule Court,05,,-15.2166667,28.15
ly,tirakt,Tirakt,56,,31.8647222,11.1330556
gb,healey,Healey,J7,,54.216667,-1.733333
gb,healing,Healing,J2,,53.566667,-.166667
mx,dzitya,Dzitya,31,,21.05,-89.7
ro,moflesti,Moflesti,26,,44.65,23.75
mx,carreon,Carreón,11,,21.440278,-101.140556
lk,pitipana,Pitipana,36,,6.8333333,80.0333333
ru,krasnoyarsk,Krasnoyarsk,39,907460,56.0091,92.8628
vn,ma tsao pu,Ma Tsao Pu,17,,22.833333,104.633333
ro,vadu crisului,Vadu Crisului,05,4311,46.983333,22.516667
ir,ushnuiyeh,Ushnuiyeh,01,,37.0397,45.0983
gb,heath,Heath,D3,,53.2,-1.333333
gb,heathrow,Heathrow,F9,,51.466667,-.45
pe,sigues,Sigues,06,,-6.765,-78.225
gb,heaton,Heaton,H2,,54.033333,-2.85
us,delaware,Delaware,IN,,39.1477778,-85.2072222
pk,panah kot,Panah Kot,03,,33.895841,71.803368
gb,hebburn,Hebburn,M7,,54.966667,-1.516667
la,muong kat,Muong Kat,14,,19.45,103.216667
gb,hebden bridge,Hebden Bridge,C2,,53.75,-2.016667
gb,hebden,Hebden,J7,,54.066667,-1.95
ir,istehri,Istehri,34,,34.7969,49.2598
gb,hebron,Hebron,X7,,51.916389,-4.651111
vu,navolou,Navolou,15,,-18.75,169.0
gb,heck,Heck,J7,,53.683333,-1.116667
gb,heckington,Heckington,H7,,52.966667,-.283333
kp,chongpori,Chongpori,13,,41.2861111,128.4486111
gb,heddon on the wall,Heddon on the Wall,J6,,54.983333,-1.783333
gb,hedgerley,Hedgerley,B9,,51.566667,-.6
hu,sebesics sor,Sebesics Sor,01,,46.116667,19.483333
mx,la tierra prometida,La Tierra Prometida,04,,18.491667,-89.25
pe,sacalla,Sacalla,20,,-4.7666667,-79.55
gb,heeley,Heeley,L9,,53.35,-1.466667
my,kampung hulu lobok,Kampung Hulu Lobok,06,,3.5053,102.5721
gb,heighington,Heighington,H7,,53.2,-.466667
kz,ashche-kum-kul',Ashche-Kum-Kul',03,,50.566667,70.816667
kr,kaewattong,Kaewattong,01,,33.4,126.283333
sd,gelaga,Gelaga,34,,13.5666667,32.0
ua,shabelniki,Shabelniki,17,,47.32657,30.472707
gb,hele,Hele,D4,,50.816667,-3.433333
ua,bilky,Bilky,25,7778,48.315033,23.13248
gb,helensburgh,Helensburgh,T8,14108,56.016667,-4.733333
pe,hacienda caracara,Hacienda Caracara,21,,-15.2166667,-70.3666667
gb,helhoughton,Helhoughton,I9,,52.8,.766667
gb,helion bumpstead,Helion Bumpstead,E4,,52.05,.4
kz,belpyk,Belpyk,15,,51.083333,78.216667
gb,hellesdon,Hellesdon,I9,,52.633333,1.25
tr,sanci,Sanci,19,,40.170443,35.115047
gb,hellifield,Hellifield,J7,,53.983333,-2.216667
gb,hellingly,Hellingly,E2,,50.866667,.25
mx,tianquisolco,Tianquisolco,12,,18.216667,-99.75
gb,helmsdale,Helmsdale,V3,637,58.116667,-3.666667
gb,helmshore,Helmshore,H2,,53.683333,-2.333333
gb,helmsley,Helmsley,J7,,54.25,-1.066667
gb,helperthorpe,Helperthorpe,J7,,54.116667,-.533333
it,bagni,Bagni,09,,46.25,9.6
ru,uchekuru,Uchekuru,63,,69.516667,161.316667
ro,bataluri,Bataluri,22,,44.516667,27.15
in,baidpur,Baidpur,35,,24.9257,78.9484
gb,helsea,Helsea,H7,,53.233333,.266667
gb,helsey,Helsey,H7,,53.233333,.266667
lk,meditale,Meditale,35,,7.0166667,81.05
kp,songjodong,Songjodong,01,,41.0666667,126.4833333
ma,zaouiet sidi ali,Zaouiet Sidi Ali,47,,32.305854,-8.251647
ma,aomar nejma,Aomar Nejma,57,,35.102832,-6.019483
us,haven,Haven,IA,,41.8916667,-92.4788889
pt,descampado,Descampado,04,,41.521823,-8.759957
gb,hemingford abbots,Hemingford Abbots,C3,,52.316667,-.1
us,orangeport,Orangeport,NY,,43.1983333,-78.5961111
gb,hemingford,Hemingford,C3,,52.316667,-.116667
gb,hemingstone,Hemingstone,N5,,52.133333,1.133333
ru,bychkovo,Bychkovo,23,,54.372716,21.046305
tr,derris,Derris,72,,37.651046,40.818314
my,kampong tebok lima,Kampong Tebok Lima,07,,3.9785,100.8121
gb,hempstead,Hempstead,E4,,52.016667,.383333
it,puro,Puro,18,,42.733333,13.016667
si,podmarkovec,Podmarkovec,04,,45.5455556,13.71
ph,sileng matanda,Sileng Matanda,13,,14.892222,120.971667
gb,hemswell,Hemswell,H7,,53.4,-.6
gb,hemsworth,Hemsworth,O7,,53.6,-1.35
gb,hemyock,Hemyock,D4,,50.916667,-3.233333
id,njomplong,Njomplong,30,,-6.246389,106.317222
mm,leikan,Leikan,02,,23.6666667,94.1
tr,kuzdere,Kuzdere,82,,40.815274,32.709143
tr,kislacik,Kislacik,82,,40.737441,33.998554
pl,szlagnowo,Szlagnowo,82,,54.058196,19.22886
gb,hendre,Hendre,X7,,51.782778,-4.041944
gb,hendy gwyn,Hendy Gwyn,X7,,51.818889,-4.615278
ro,paucea,Paucea,27,,46.216667,24.366667
mm,ywamun,Ywamun,10,,22.5333333,95.0833333
ru,svoboda,Svoboda,38,,44.920833,40.733056
gb,henfynyw upper,Henfynyw Upper,X6,,52.233333,-4.25
gb,hengoed,Hengoed,X4,,51.650833,-3.231667
sk,aranyos,Aranyos,02,,47.7666667,17.9666667
us,wallace,Wallace,SD,,45.0861111,-97.4755556
ne,garin mokoyo,Garin Mokoyo,04,,13.45,6.9666667
ro,remecioara,Remecioara,25,,47.516667,23.566667
hn,loma de horno,Loma de Horno,10,,14.4333333,-88.3833333
us,stanley,Stanley,KS,,38.8544444,-94.6655556
ru,sobolevskoye,Sobolevskoye,73,,55.611673,48.454239
ng,kuringa,Kuringa,24,,11.294914,7.581244
my,kampong tuang,Kampong Tuang,16,,5.516667,115.9
pk,salim shah,Salim Shah,03,,34.797386,72.082884
gb,henlow,Henlow,Z6,,52.016667,-.283333
th,ban pang phra puk,Ban Pang Phra Puk,02,,19.245639,98.970611
gb,henry's moat,Henry's Moat,Y7,,51.913611,-4.846944
gb,hensall,Hensall,J7,,53.7,-1.1
hr,korita,Korita,15,,43.6477778,16.5366667
gb,henstridge,Henstridge,M3,,50.966667,-2.4
gb,henton,Henton,M3,,51.206389,-2.725556
sk,lavovce,Lavovce,08,,49.1333333,18.5166667
ir,hebteh tala,Hebteh Tala,42,,36.669926,59.17367
id,sarangan,Sarangan,17,,-8.8602,116.1121
rs,tresnjanci,Tresnjanci,00,,43.251389,22.422222
pl,juszkowo,Juszkowo,82,,54.255721,18.608386
ru,pekshikovo,Pekshikovo,33,,57.3053,48.5216
pt,achada,Achada,23,,37.85,-25.266667
gb,hepworth,Hepworth,G8,,53.55,-1.75
ru,privalovka,Privalovka,23,,55.218968,21.423698
ir,cham mardas,Cham Mardas,15,,31.304989,49.795405
sk,hontianska vrbica,Hontianska Vrbica,04,,48.1333333,18.7166667
gb,hereford,Hereford,F7,58281,52.05,-2.716667
us,centertown,Centertown,MO,,38.6186111,-92.4122222
kr,pyongjongni,Pyongjongni,20,,35.405278,127.901944
ru,semekhino,Semekhino,69,,54.682652,32.382231
ml,babi,Babi,08,,15.8166667,-4.05
rs,donji krajcinovici,Donji Krajcinovici,00,,43.504167,19.354444
th,ban huai ramong,Ban Huai Ramong,78,,16.504573,104.42655
pk,buapur,Buapur,04,,30.228056,71.533333
id,basuhan,Basuhan,07,,-7.992778,110.78
id,kajongan,Kajongan,08,,-6.8933,112.0604
ro,poiana petri,Poiana Petri,38,,46.65,27.35
gb,herriard,Herriard,F2,,51.216667,-1.05
gb,herringfleet,Herringfleet,N5,,52.516667,1.65
gb,herringswell,Herringswell,N5,,52.3,.516667
pl,teresin,Teresin,74,,51.426966,19.348467
id,leboes,Leboes,18,,-9.166667,125.233333
ir,suz din,Suz Din,35,,36.741008,53.525984
gb,hertford,Hertford,F8,25848,51.8,-.066667
gb,hertfordshire,Hertfordshire,F8,,51.833333,-.25
id,ngasinan dua,Ngasinan Dua,07,,-7.269444,110.655556
gb,herts,Herts,F8,,51.833333,-.25
id,patamanunu,Patamanunu,18,,-9.7225,119.3082
ug,kitgumo,Kitgumo,84,,3.2783333,32.8866667
us,white oak meadows,White Oak Meadows,OH,,39.2272222,-84.5997222
iq,muqbil,Muqbil,15,,36.6166667,43.4
gb,heslington,Heslington,Q5,,53.95,-1.033333
sn,etiolo,Etiolo,05,,12.6,-12.85
gb,hesset,Hesset,N5,,52.2,.833333
pk,dhok naian,Dhok Naian,04,,33.455828,72.006273
ir,shahr-e zaviyeh,Shahr-e Zaviyeh,34,,35.3831,50.5657
us,mulga,Mulga,OH,,39.1172222,-82.4686111
kr,kairi,Kairi,16,,34.583333,126.6
kz,samsonovskoye,Samsonovskoye,17,,42.729444,70.533611
lb,el aaoude,El Aaoudé,06,,33.5347222,35.3797222
tr,salik,Salik,31,,36.05,36.183333
pk,samtia,Samtia,05,,27.242483,68.022018
id,enjek,Enjek,17,,-8.6516,116.3496
ma,ouled othmane,Ouled Othmane,58,,34.458182,-5.355187
gb,heveningham,Heveningham,N5,,52.3,1.433333
in,tikura,Tikura,36,,27.5241,79.6773
gb,heversham,Heversham,C9,,54.233333,-2.766667
gb,hevingham,Hevingham,I9,,52.75,1.266667
us,kenwood,Kenwood,IA,,42.0086111,-95.5097222
ru,rassokhiny,Rassokhiny,33,,58.7605,49.3248
th,ban yang ueat,Ban Yang Ueat,30,,15.15725,104.140861
ng,osurowo,Osurowo,48,,7.2284,5.4875
lk,hulanuge,Hulanuge,31,,6.9166667,81.6666667
gb,heydon,Heydon,I9,,52.8,1.133333
gb,heydour,Heydour,H7,,52.933333,-.483333
in,pachud,Pachud,16,,19.55,75.633333
lb,btarhin,Btarhin,05,,33.85,35.7
tr,yukariayvali,Yukariayvali,33,,37.668333,31.047222
us,vineyard crossroads,Vineyard Crossroads,GA,,33.3811111,-84.6713889
gb,heytesbury,Heytesbury,P8,,51.183056,-2.108333
ir,dastjordeh-ye `olya,Dastjordeh-ye `Olya,13,,34.5722,47.5642
gb,heywood,Heywood,L2,28016,53.583333,-2.216667
ru,etneskeoy,Etneskeoy,16,,55.918013,47.695535
ir,mehranabad,Mehranabad,36,,36.1467,48.4235
mx,tomatlan,Tomatlan,16,,19.2,-102.6
gb,high ackworth,High Ackworth,O7,,53.65,-1.333333
sn,boinadji sinthiou,Boinadji Sinthiou,04,,15.65,-13.35
gb,higham,Higham,E4,,51.966667,.966667
ng,shemore,Shemore,16,,7.033333,3.8
gb,higham,Higham,N5,,52.25,.583333
ph,cabugao norte,Cabugao Norte,30,,10.783333,122.55
ph,camp six,Camp Six,B7,,10.333333,123.766667
gb,high bentham,High Bentham,J7,,54.1,-2.5
la,ban nava,Ban Nava,11,,18.328333,102.676944
ir,gommazi,Gommazi,04,,25.4527,60.8607
zm,mutaami,Mutaami,03,,-15.2,22.5666667
ma,oukaia,Oukaïa,55,,31.085235,-7.512532
gb,highbury,Highbury,G3,,51.55,-.1
th,ban khok katai,Ban Khok Katai,52,,13.65,99.783333
gb,high catton,High Catton,E1,,53.983333,-.9
pk,kala ram,Kala Ram,03,,32.764254,70.840245
id,talang doelmanan,Talang Doelmanan,15,,-3.8,105.6
tr,cobankoy,Çobanköy,37,,41.45,34.4
kr,chommal,Chommal,11,,37.5633,127.1346
gb,higher bebington,Higher Bebington,Q1,,53.35,-3.016667
gb,high ercall,High Ercall,O2,,52.75,-2.6
gr,agios stefanos,Ágios Stéfanos,47,,36.7608333,26.9961111
gb,higher thrushgill,Higher Thrushgill,H2,,54.05,-2.533333
ir,sang-e bahram,Sang-e Bahram,29,,28.9307,55.8269
ro,mirsid,Mirsid,31,2246,47.233333,23.133333
iq,sayyid rahman,Sayyid Rahman,04,,32.0233333,44.6797222
id,praguman 2,Praguman 2,07,,-7.273333,110.455556
gb,highgate,Highgate,G5,,51.033333,.516667
hu,nogradmarcal,Nógrádmarcal,14,,48.027146,19.385914
sy,damir,Damir,13,,33.6416667,36.7083333
us,bennett,Bennett,CO,,39.7588889,-104.4269444
ru,telikovka,Telikovka,67,,52.5175,48.3766
gb,high ham,High Ham,M3,,51.075833,-2.820833
gb,high hazels,High Hazels,L9,,53.383333,-1.4
gb,high heaton,High Heaton,I7,,55,-1.6
ir,konus kuh,Konus Kuh,35,,36.6874,51.0048
us,darling landing,Darling Landing,AL,,30.4430556,-87.9133333
la,tam luk,Tam Luk,14,,19.5,103.683333
gb,highland,Highland,V3,,57.5,-5
gb,highland region,Highland Region,V3,,57.5,-5
tr,khandak,Khandak,54,,40.799444,30.748056
gb,highley,Highley,L6,,52.45,-2.383333
sy,boustane bacha,Boustâne Bâcha,02,,35.4166667,35.9333333
gb,high nibthwaite,High Nibthwaite,C9,,54.3,-3.083333
ge,shkhept,Shkhept,48,,42.2916667,42.1233333
gb,high ongar,High Ongar,E4,,51.7,.266667
gb,high peak,High Peak,D3,,53.1,-1.533333
gb,highpeak junction,Highpeak Junction,D3,,53.1,-1.533333
is,miðgarðar,Miðgarðar,09,,66.533333,-18
gb,high smerby,High Smerby,T8,,55.45,-5.533333
ru,bugry,Bugry,52,,58.756478,35.235521
id,bagung,Bagung,07,,-6.8874,110.5621
kh,phum pon norie,Phum Pon Norie,05,,12.45,105.2
ru,papushin,Papushin,09,,50.4622,38.6107
tr,ayazmakoy,Ayazmaköy,34,,41.199167,28.714722
ru,spasskaya,Spasskaya,76,,54.081108,38.458895
id,babakon satu,Babakon Satu,30,,-7.044444,107.525833
gb,highworth,Highworth,N9,,51.616667,-1.7
us,winameg,Winameg,OH,,41.6269444,-84.0650000
gb,high wycombe,High Wycombe,B9,80357,51.633333,-.766667
gb,high yewdale,High Yewdale,C9,,54.383333,-3.05
nl,roekebosch,Roekebosch,15,,52.720631,6.137371
la,ban naphanang,Ban Naphanang,04,,17.3,105.766667
gb,hildenborough,Hildenborough,G5,,51.2,.233333
pl,budy czarnockie,Budy Czarnockie,81,,53.228242,22.113719
vn,ban suoi dan,Ban Suoi Dan,19,,21.116667,104.783333
gb,hilgay,Hilgay,I9,,52.55,.4
us,exmore,Exmore,VA,,37.5316667,-75.8233333
id,boengkal,Boengkal,08,,-8.0079,111.4541
ru,nechayevka,Nechayevka,17,,43.269067,46.917456
gb,hillfoots,Hillfoots,U5,,55.916667,-4.316667
gb,hill head,Hill Head,F2,,50.816667,-1.233333
iq,wash kubbah,Wash Kubbah,05,,35.4333333,45.9166667
gb,hill,Hill,M6,,51.651389,-2.515556
ug,patongo,Patongo,92,,2.7447222,33.3241667
gb,hillington,Hillington,I9,,52.8,.566667
zm,siseho,Siseho,03,,-15.3333333,22.75
pe,cacray,Cacray,12,,-11.45,-76.0333333
tr,sugur,Sugur,46,,37.566667,36.6
pk,gulrangwali,Gulrangwali,04,,32.668784,71.952876
zr,loni,Loni,00,,-5.7333333,26.2666667
gb,hillsborough,Hillsborough,L9,,53.4,-1.516667
id,bekakak,Bekakak,07,,-7.074167,110.379167
gb,hillside,Hillside,T7,999,56.733333,-2.483333
id,purus,Purus,18,,-8.4596,120.5144
gb,hillswick,Hillswick,W3,,60.466667,-1.5
id,bodor,Bodor,30,,-6.416389,106.460556
gb,hilltown,Hilltown,S9,,54.2,-6.133333
id,sobodukuh,Sobodukuh,07,,-7.442222,110.291111
id,dusun 2 solimandungan 2,Dusun 2 Solimandungan 2,31,,.8371,124.1685
gb,hilperton,Hilperton,P8,,51.331667,-2.185833
pk,mazrina,Mazrina,04,,33.158334,71.573987
se,hudene,Hudene,28,,58.05,13.083333
mw,bwanthuwa,Bwanthuwa,17,,-11.4833333,34.2
pt,tinocos,Tinocos,04,,41.57815,-8.290077
pk,makhazai,Makhazai,01,,33.610448,70.306019
gb,hilton,Hilton,D8,,54.583333,-1.75
ir,esmi,Esmi,43,,38.193774,56.600565
gb,hilton of cadboll,Hilton of Cadboll,V3,,57.766667,-3.883333
ir,nazarabad,Nazarabad,04,,28.3643,60.5059
ru,petropavlovka,Petropavlovka,75,,56.801944,84.850833
gb,hinckley,Hinckley,H5,45130,52.533333,-1.366667
mg,befandrana,Befandrana,03,,-15.8,46.6333333
jp,hashima,Hashima,09,65613,35.328999,136.680514
id,sinarjaya,Sinarjaya,33,,-6.1749,106.0211
tn,jerbna,Jerbna,06,,36.7575,8.955833
tr,kickisla,Kickisla,71,,37.814525,33.717987
kp,pangchon,Pangchon,11,,39.7425,125.2319444
hn,el obrajito,El Obrajito,13,,14.05,-88.5166667
gb,hindringham,Hindringham,I9,,52.883333,.95
ru,vorontsovskiy,Vorontsovskiy,76,,53.850528,36.764112
pk,jolagram,Jolagram,03,,34.617704,71.894718
gb,hintlesham,Hintlesham,N5,,52.05,1.05
gb,hinton ampner,Hinton Ampner,F2,,51.033333,-1.133333
vn,hai chau,Hai Chau,29,,15.916667,108.133333
tr,darbogaz,Darbogaz,49,,38.666667,41.55
ru,chembor,Chembor,62,,54.1312,40.6168
sy,bayt ziwan,Bayt Ziwan,02,,35.8,36.0833333
gb,hinton,Hinton,M6,,51.489722,-2.384722
hn,ticamaya,Ticamaya,06,,15.6166667,-87.85
kr,wonbong,Wonbong,17,,36.452,127.2387
gb,hinton on the green,Hinton on the Green,Q4,,52.05,-1.95
tr,marasalcakmak,Marasalcakmak,62,,39.360278,39.222101
gb,hinxhill,Hinxhill,G5,,51.133333,.933333
ru,baydakov,Baydakov,07,,48.166667,46.466667
id,kabas,Kabas,30,,-6.455833,108.368056
gb,hipperholme,Hipperholme,C2,,53.716667,-1.816667
tr,kuz,Kuz,37,,41.784778,33.999911
lv,vaiclujeva,Vaiclujeva,14,,55.85,27.55
tr,karaca,Karaca,55,,41.281493,36.815699
gb,hirwain,Hirwain,Y9,,51.739167,-3.510278
mz,nanoma,Nanoma,10,,-19.4825,33.0452778
id,rametuk,Rametuk,30,,-6.881667,107.172778
gb,hitcham,Hitcham,N5,,52.116667,.9
gb,hitchin,Hitchin,F8,33830,51.95,-.266667
gb,hittisleigh,Hittisleigh,D4,,50.733333,-3.8
gb,hoarwithy,Hoarwithy,F7,,51.966667,-2.666667
id,kampung nagaraya,Kampung Nagaraya,26,,3.0956,98.9932
lk,kuda ganewewa,Kuda Ganewewa,30,,8.15,80.4
ru,nizhneye bolvanovo,Nizhneye Bolvanovo,69,,55.129192,34.744474
hn,el terrero,El Terrero,01,,13.4,-86.9833333
tw,shaping,Shaping,04,,24.5833333,120.9
gb,hockerton,Hockerton,J9,,53.1,-.933333
iq,hanara,Hanara,11,,36.2888889,44.2508333
ng,olukoti,Olukoti,32,,7.502778,3.788611
ir,"damu""eh","Damu""eh",09,,34.3744,48.1555
se,hermanshult,Hermanshult,16,,58.25,15.183333
ru,yashinskiy,Yashinskiy,55,,52.616667,53.933333
ru,novo firsovi,Novo Firsovi,04,,51.75,82.233333
us,pinesdale,Pinesdale,MT,,46.3294444,-114.2158333
lk,katana east,Katana East,36,,7.25,79.9166667
gb,hoddesdon,Hoddesdon,F8,35174,51.75,0
id,tangkala,Tangkala,38,,-5.1012,119.5252
gb,hodnet,Hodnet,L6,,52.85,-2.583333
jp,chida,Chida,29,,37.816667,138.316667
mx,san jose del valle,San José del Valle,07,,25.8,-100.916667
ru,kazanovka,Kazanovka,62,,54.683333,41.716667
mm,leikkonzu,Leikkonzu,03,,17.5,95.7166667
sy,bzabur,Bzabur,12,,35.7666667,36.6166667
ua,yarovo,Yarovo,22,,49,25.316667
sv,valle guayapa,Valle Guayapa,01,,13.7177778,-89.9697222
gb,holbeach clough,Holbeach Clough,H7,,52.816667,0
ve,la cachino,La Cachino,25,,10.4333333,-66.9333333
nl,brakel,Brakel,03,,51.819097,5.09387
gb,holbeck,Holbeck,J9,,53.25,-1.183333
in,bukpui,Bukpui,31,,23.35,92.833333
kr,yongdam,Yongdam,14,,36.3231,128.3134
ph,candan,Candan,H2,,13.916667,122.283333
gb,holborough,Holborough,G5,,51.333333,.45
ua,kary,Kary,11,,45.183333,36.033333
sn,djihaba,Djihaba,11,,12.6744444,-15.5177778
id,taji,Taji,08,,-7.0267,112.2312
sk,sklena huta,Sklená Huta,01,,48.6,19.5333333
gb,thanet,Thanet,G5,,51.35,1.283333
us,piper,Piper,MT,,46.9900000,-109.1997222
th,ban phapok,Ban Phapok,52,,13.559639,99.2285
tr,cakirbag,Cakirbag,78,,37.19081,33.139659
gn,yenyeia,Yenyeia,08,,10.2666667,-13.4166667
gb,hole,Hole,T7,,56.766667,-3.2
ro,preajba,Preajba,17,,44.266667,23.85
ua,vysshiy bulatets,Vysshiy Bulatets,18,,50.029972,32.900312
ru,yarinskiy klyuch,Yarinskiy Klyuch,04,,51.249722,82.35
gb,hollacombe,Hollacombe,D4,,50.8,-4.3
id,rantau panjang hulu,Rantau Panjang Hulu,26,,3.6836,98.8424
pk,nasrullah park,Nasrullah Park,04,,31.6057,74.3535
ru,veskovo,Veskovo,88,,56.724446,38.781187
ml,waki,Waki,05,,12.8333333,-4.8333333
us,chiulikam,Chiulikam,AZ,,32.5744444,-112.5252778
ph,gulak,Gulak,68,,16.6268,121.5356
gb,hollinsclough,Hollinsclough,N1,,53.2,-1.9
gb,hollinwood,Hollinwood,K1,,53.516667,-2.133333
gb,holly lane,Holly Lane,A7,,52.55,-1.883333
ir,mamatain,Mamatain,15,,31.319711,49.76004
gb,holmbridge,Holmbridge,G8,,53.55,-1.816667
pl,kolonia bronislawow,Kolonia Bronislawow,74,,51.496071,18.618174
gb,holmbury saint mary,Holmbury Saint Mary,N7,,51.183333,-.416667
gb,holmebridge,Holmebridge,G8,,53.55,-1.816667
gb,holme chapel,Holme Chapel,H2,,53.75,-2.183333
ir,shoor abad,Shoor Abad,29,,28.99924,58.827846
ua,perspektivnyy,Perspektivnyy,04,,47.816667,33.966667
rs,bujacic,Bujacic,00,,44.2575,19.913056
ro,vadu stanchii,Vadu Stanchii,42,,44.533333,25.483333
th,ban kong ra,Ban Kong Ra,66,,7.466667,99.933333
us,sugar valley,Sugar Valley,MD,,39.7194444,-76.8111111
id,pasirsalam,Pasirsalam,33,,-6.302778,106.3087
nl,scharl,Scharl,02,,52.867602,5.39395
jp,kisai,Kisai,34,20851,36.1,139.583333
tw,shihssufenpo,Shihssufenpo,03,,25.0833333,121.6
id,utankramat,Utankramat,30,,-6.077778,107.101667
kr,chukto,Chukto,13,,37.913,127.4438
md,peticeni,Peticeni,66,,47.237222,28.207222
ru,gryaznyye kharchevni,Gryaznyye Kharchevni,52,,58.301428,30.887331
gb,holmewood,Holmewood,D3,,53.183333,-1.35
id,ciraja girang,Ciraja Girang,30,,-6.875833,107.878889
gb,holm,Holm,U2,,55.266667,-3.183333
tz,mbuni,Mbuni,02,,-7.9,39.2
gb,holmpton,Holmpton,E1,,53.683333,.066667
gb,holmwood,Holmwood,N7,,51.183333,-.316667
ng,ungwan maigari,Ungwan Maigari,24,,11.516667,7.716667
kr,naemori,Naemori,06,,37.2655,128.5271
gb,holtby,Holtby,Q5,,53.966667,-.966667
rs,smedere,Smedere,00,,44.662778,20.93
kz,sadak,Sadak,07,,51.45,52.9
gn,boom,Boom,04,,9.4713889,-13.8369444
gb,holt,Holt,Z4,,53.066667,-2.883333
mg,anarobe,Anarobe,06,,-21.5833333,44.6
gb,holton,Holton,H7,,53.3,-.333333
gb,holton,Holton,M3,,51.041111,-2.447222
gb,holton,Holton,N5,,52.333333,1.516667
ir,qarah vali,Qarah Vali,33,,36.9981,47.2905
ir,rikabad,Rikabad,01,,36.6469,45.2276
kr,jeongsuri,Jeongsuri,13,,37.265833,127.297222
id,serang dua,Serang Dua,07,,-7.163611,110.265278
jp,tomitaisshiki,Tomitaisshiki,23,,35,136.666667
mz,cambola,Cambola,08,,-17.2833333,35.1666667
pg,siabe,Siabe,04,,-8.3,148.15
ph,rosarriohan,Rosarriohan,11,,9.8862,124.3779
us,battle,Battle,KY,,37.7786111,-85.0286111
zm,kalandekela,Kalandekela,05,,-12.4666667,29.9
gb,holytown,Holytown,V8,,55.816667,-3.95
mn,erdenetsogt,Erdenetsogt,02,,46.4166667,100.8
ru,shavrinka,Shavrinka,52,,57.0191,31.5147
la,ban that,Ban That,07,,21.050556,102.078611
gb,holywood,Holywood,T2,,54.633333,-5.816667
gb,holywood,Holywood,U2,,55.1,-3.65
hu,pacsonyujtelep,Pácsonyújtelep,22,,47,16.833333
gb,homersfield,Homersfield,N5,,52.416667,1.366667
se,fernviken,Fernviken,10,,60.533333,15.733333
sn,sagata,Sagata,08,,15.2166667,-15.5833333
gb,honingham,Honingham,I9,,52.65,1.116667
no,otnes,Otnes,15,311,62.033333,5.483333
id,pagar pinang lama,Pagar Pinang Lama,26,,2.1848,98.1958
ve,el draguito,El Draguito,05,,8.2458333,-67.8936111
id,kikulete,Kikulete,18,,-9.6223,119.4006
iq,nahom yahudi,Nahom Yahudi,14,,31.8,47.15
ma,ait moussa bou ahmed,Aït Moussa Bou Ahmed,47,,32.308811,-8.343049
gb,honley,Honley,G8,,53.6,-1.8
ye,madhrah,Madhrah,11,,14.6938889,43.9375
gb,hoo,Hoo,I3,,51.4,.566667
ru,petrochata,Petrochata,69,,55.678752,31.979257
rs,terllabuc,Terllabuc,00,,42.874444,20.973333
tr,miyadin,Miyadin,25,,40.016667,41.783333
ir,tuteh bagh,Tuteh Bagh,08,,37.1022,49.2276
mx,mezquitillo,Mezquitillo,26,,26.833333,-108.933333
ni,villa carlos fonseca amador,Villa Carlos Fonseca Amador,10,,11.9833333,-86.5166667
mm,wan hsenwunhong,Wan Hsenwunhong,11,,21.65,100.9666667
vn,ban lan nia,Ban Lan Nia,22,,21.383333,103.15
gw,pate uindi,Pate Uindi,04,,11.7,-14.65
gb,hooton roberts,Hooton Roberts,L3,,53.466667,-1.266667
gb,hope baggott,Hope Baggott,L6,,52.35,-2.616667
th,ban kok kloi,Ban Kok Kloi,61,,8.2735,98.314445
jp,abashiri,Abashiri,12,42498,44.019722,144.258611
gb,hope,Hope,D3,,53.35,-1.75
gb,hope,Hope,D4,,50.25,-3.85
kp,ummandai,Ummandai,17,,40.9491667,129.7488889
ir,gizmel-e pa'in,Gizmel-e Pa'in,16,,35.7055,46.789
lr,dennis farm,Dennis Farm,17,,6.6666667,-10.35
us,iron furnace,Iron Furnace,NY,,43.4952778,-73.5458333
gb,hope under dinmore,Hope under Dinmore,F7,,52.183333,-2.716667
ru,nasonova,Nasonova,71,,56.85,62.7
ir,`arababad,`Arababad,44,,35.8219,50.7997
gb,hopton,Hopton,I9,,52.533333,1.733333
gb,hopton,Hopton,N1,,52.833333,-2.1
gb,hopton,Hopton,N5,,52.366667,.933333
gb,hopton on sea,Hopton on Sea,I9,,52.533333,1.733333
tr,taslan,Taslan,37,,41.366003,33.885526
id,bajar,Bajar,18,,-8.5646,120.5415
sy,shukhrash at tahtani,Shukhrash at Tahtani,01,,36.9333333,40.8
ir,yowrqanlu,Yowrqanlu,01,,37.6344,44.9936
gb,horden,Horden,D8,,54.75,-1.283333
pk,chistiwala,Chistiwala,04,,31.887947,71.217696
gb,hordle,Hordle,F2,,50.75,-1.6
om,lakbah,Lakbah,08,,18.0833333,56.4833333
gb,horeham,Horeham,E2,,50.916667,.25
lk,palippotana,Palippotana,30,,8.5166667,80.6666667
gb,horkesley,Horkesley,E4,,51.933333,.866667
us,west bethany,West Bethany,NY,,42.9138889,-78.1925000
ru,tervenichi,Tervenichi,42,,60.322294,34.097264
ir,deh-e murd,Deh-e Murd,07,,29.7509,54.0081
nl,moordhuizen,Moordhuizen,03,,51.815167,5.442962
gb,hornblotton green,Hornblotton Green,M3,,51.098611,-2.588333
it,dorrecatona,Dorrecatona,03,,38.183333,15.633333
gb,hornby,Hornby,H2,,54.1,-2.633333
mx,pozos,Pozos,20,,16.283333,-94.333333
th,ban nong kung pao,Ban Nong Kung Pao,76,,16.943306,103.286417
gw,bolaba,Bolabá,04,,11.6666667,-14.0
gb,horncliffe,Horncliffe,J6,,55.75,-2.116667
ma,douar oulad souilem,Douar Oulad Souilem,51,,32.464103,-9.056331
id,tembelang,Tembelang,08,,-7.4781,112.2318
gl,trigtut,Trigtut,03,,61.2,-48.1666667
tt,carenage,Carenage,08,,10.6833333,-61.6
us,cinco bayou,Cinco Bayou,FL,,30.4219444,-86.6094444
ru,volchkar,Volchkar,62,,54.701936,41.530236
id,balla,Balla,41,,-3.1185,119.4803
gb,horningsham,Horningsham,P8,,51.1725,-2.2725
tr,turkeslik,Turkeslik,58,,39.906091,37.994994
th,ban takhian tai,Ban Takhian Tai,30,,14.766556,104.454445
gb,hornton,Hornton,K2,,52.083333,-1.416667
gb,horrabridge,Horrabridge,D4,,50.505833,-4.0975
gb,horringford,Horringford,G2,,50.666667,-1.233333
gb,horsebridge,Horsebridge,E2,,50.866667,.233333
mx,nuevo cuauhtemoc,Nuevo Cuauhtémoc,06,,31.533333,-107.25
ru,monastyrskoye,Monastyrskoye,46,,54.092523,45.133481
gb,horsell,Horsell,N7,,51.316667,-.566667
ma,takerbount,Takerbount,55,,30.048489,-8.755628
gb,horsey,Horsey,I9,,52.733333,1.666667
ht,lagune figuier,Lagune Figuier,07,,18.8,-71.8
ir,mazra`eh laleh andar,Mazra`eh Laleh Andar,40,,31.638323,54.011067
ph,kabanaoan,Kabañaoan,20,,14.165741,121.010425
gb,horsham,Horsham,P6,50680,51.05,-.333333
gb,horsham saint faith,Horsham Saint Faith,I9,,52.683333,1.283333
gb,horsington,Horsington,H7,,53.2,-.216667
gb,horsley,Horsley,E6,,51.683333,-2.233333
mm,hkanghkai,Hkanghkai,11,,22.15,97.1666667
gb,horsley,Horsley,N7,,51.25,-.433333
pl,kolonia franciszkowo,Kolonia Franciszkowo,73,,52.921945,19.321429
pk,goth raja,Goth Raja,05,,24.315444,68.290524
kz,vladimirovskiy,Vladimirovskiy,15,,50.183333,80.9
us,allah,Allah,AZ,,33.9280556,-112.6900000
us,carlton,Carlton,TN,,35.8244444,-84.0261111
ua,novopavlovka,NovoPavlovka,16,,47.016667,32.333333
kz,pavlovskoye,Pavlovskoye,03,,51.406667,72.634444
lk,baliwila,Baliwila,36,,7.05,80.0833333
kr,kundongne,Kundongne,16,,34.6575,126.888056
ru,shamovka,Shamovka,10,,52.385035,32.473198
gb,horton in ribblesdale,Horton in Ribblesdale,J7,,54.133333,-2.283333
gb,horton kirby,Horton Kirby,G5,,51.383333,.233333
ve,altagracia,Altagracia,02,,8.5647222,-64.0661111
gb,hose,Hose,H5,,52.833333,-.9
gh,esuampa,Esuampa,09,,5.4333333,-2.15
id,wajamli,Wajamli,29,,.966667,128.516667
gb,hougary,Hougary,W8,,57.6,-7.55
ru,portsino,Portsino,47,,56.2735,36.12
id,wolonkotit,Wolonkotit,18,,-8.6785,122.3329
gb,hougharry,Hougharry,W8,,57.6,-7.55
tj,gulisurkh,Gulisurkh,02,,38.4436111,69.2272222
ro,cenei,Cenei,36,4754,45.715833,20.903889
ge,abazadag,Abazadag,02,,43.1166667,41.1
tr,asagiserinyer,Asagiserinyer,12,,39.202766,40.256738
so,erjegle,Erjegle,01,,3.5666667,43.85
gf,maraudeur,Maraudeur,00,,3.6,-53.7166667
mx,ignacio allende primera seccion,Ignacio Allende Primera Sección,27,,17.554167,-92.983333
ru,karchinskaya,Karchinskaya,61,,49.3525,41.641944
rs,lausi,Lausi,00,,43.648611,20.215278
gb,houghton,Houghton,Y7,,51.728889,-4.920833
gb,houghton-le-skerne,Houghton-le-Skerne,D1,,54.533333,-1.516667
so,aw yaale,Aw Yaale,04,,2.85,44.2666667
kr,botteul,Botteul,13,,37.161667,127.493333
la,ban dua tay,Ban Dua Tay,02,,15.233333,105.8
gb,houghton saint giles,Houghton Saint Giles,I9,,52.883333,.866667
gb,hounam,Hounam,T9,,55.466667,-2.35
in,sihari pariya,Sihari Pariya,36,,26.1137,79.4159
gb,hounslow,Hounslow,G1,,51.466667,-.35
gb,housetter,Housetter,W3,,60.55,-1.333333
pt,cerro da zorra,Cerro da Zorra,09,,37.15,-7.7
ru,kvashinskiy,Kvashinskiy,53,,55.4,82.066667
gb,hoveringham,Hoveringham,J9,,53.016667,-.966667
gb,hovingham,Hovingham,J7,,54.166667,-.966667
hu,bajcsa,Bajcsa,24,,46.514167,16.971667
mw,mthambalika,Mthambalika,09,,-12.7166667,33.7166667
tr,dilekci,Dilekçi,71,,37.951943,32.166457
md,chinisheutsy,Chinisheutsy,83,,47.695556,28.855
vn,ban tham,Ban Tham,32,,21.1,103.783333
ru,malaya butyrka,Malaya Butyrka,04,,52.7296,81.6647
gb,howmore,Howmore,W8,,57.3,-7.383333
jm,mount charles,Mount Charles,08,,18.0166667,-76.65
gr,papadhates,Papadhátes,19,,39.3133333,20.7925
gb,howwood,Howwood,W2,,55.8,-4.55
jo,buseira,Buseira,12,,30.737604,35.607747
pk,danakol,Danakol,03,,34.80728,72.798389
pg,dahungai,Dahungai,11,,-3.5833333,142.75
id,sukadamai,Sukadamai,01,,3.634,96.9481
ne,daoualki,Daoualki,06,,14.0166667,6.2333333
gb,hubbard bridge,Hubbard Bridge,H7,,52.966667,-.1
gb,hubberston,Hubberston,Y7,,51.712222,-5.029444
gb,hubberts bridge,Hubberts Bridge,H7,,52.966667,-.1
gb,huby,Huby,J7,,54.083333,-1.133333
gh,kosuri,Kosuri,06,,9.5166667,-1.1
gb,hucklow,Hucklow,D3,,53.3,-1.75
ir,shahrak-e golidagh,Shahrak-e Golidagh,37,,37.641147,55.944802
gb,hucknall torkard,Hucknall Torkard,J9,,53.033333,-1.2
mg,andovaky,Andovaky,02,,-24.0166667,46.9833333
pl,masuchowken,Masuchowken,85,,53.995824,22.057458
gb,huggate,Huggate,E1,,53.983333,-.65
gb,hugglescote,Hugglescote,H5,,52.7,-1.366667
kp,yongsangni,Yongsangni,11,,39.7347222,124.685
gb,hughley,Hughley,L6,,52.566667,-2.65
ir,kalihimeh,Kalihimeh,04,,26.690278,59.487222
lv,nagliena,Nagliena,09,,57.2333333,26.8166667
gb,hulcott,Hulcott,B9,,51.833333,-.766667
gb,hulland,Hulland,D3,,53.016667,-1.633333
mx,san cirilo,San Cirilo,22,,20.416667,-100.2
sy,hadid el assi,Hadid el Assi,11,,34.6833333,36.6166667
vn,nuoc ten,Nuoc Ten,27,,14.733333,108.866667
id,tuto alo,Tuto Alo,00,,8.389722,127.256389
ph,nagbokel,Nagbokel,29,,17.666667,120.466667
mt,tas-samra,Tas-Samra,00,,35.884444,14.490278
gb,humberstone,Humberstone,H4,,52.633333,-1.066667
gb,humberstone,Humberstone,J2,,53.533333,-.033333
zm,lipemba,Lipemba,03,,-14.0833333,22.9333333
id,tragal,Tragal,08,,-7.5423,112.3462
gb,humbleton,Humbleton,E1,,53.783333,-.15
mx,los carrillo,Los Carrillo,06,,26.266667,-107.333333
ru,turbenevo,Turbenevo,51,,55.851389,42.883333
ir,joft rood,Joft Rood,41,,32.86516,58.598112
gb,huna,Huna,V3,,58.65,-3.1
id,gelegormapung,Gelegormapung,17,,-8.6948,116.295
se,rojerasen,Röjeråsen,10,,60.95,14.983333
ua,pikov,Pikov,23,,49.561021,28.278905
sy,qanat al furrah,Qanat al Furrah,09,,36.4833333,37.9
id,waropko,Waropko,36,,-5.583333,140.783333
jo,khirbat suweilma,Khirbat Suweilma,02,,32.482673,36.151007
gb,hungerton,Hungerton,H5,,52.65,-.966667
ru,bolshoye ramenye,Bolshoye Ramenye,33,,58.686523,49.100493
mz,mualide,Mualide,07,,-13.35,35.2666667
gb,hunstanton,Hunstanton,I9,,52.95,.5
hr,ravenski prikraj,Ravenski Prikraj,06,,46.0,16.55
id,lembur tengah,Lembur Tengah,30,,-6.935833,107.077778
tj,roshorv,Roshorv,01,,38.315,72.3211111
rs,petrovaradin,Petrovaradin,00,14787,45.246667,19.879444
id,mungkruk,Mungkruk,07,,-7.241944,110.616111
ro,magura,Magura,05,,46.55,22.55
pk,ali rawana,Ali Rawana,04,,32.238889,73.136111
tr,hacifaris,Hacifaris,72,,37.265227,40.641896
ru,chemaki,Chemaki,33,,59.0205,50.4665
ru,kytalyk-sarbyt,Kytalyk-Sarbyt,63,,69.2,134.4
gb,huntley,Huntley,E6,,51.866667,-2.4
ph,maramba,Maramba,05,,13.11736,123.293094
mx,huajuapan,Huajuapan,20,47846,17.8,-97.766667
ne,larba birnon,Larba Birnon,09,,13.7036111,1.5588889
tr,mezraa,Mezraa,76,,38.183333,41.4
zr,lubango,Lubango,11,,0.0666667,29.7
gb,huntspill,Huntspill,M3,,51.205833,-2.988889
gb,hunwick,Hunwick,D8,,54.683333,-1.7
sn,keur mballo,Keur Mballo,07,,15.1166667,-16.3333333
il,shikun darom,Shikun Darom,02,,32.298321,34.85429
gb,hurcott,Hurcott,M3,,51.064722,-2.708889
us,ampere,Ampere,NJ,,40.7666667,-74.1952778
pe,querulpa hacienda,Querulpa Hacienda,04,,-16.1675,-72.4833333
ye,atharah,Atharah,06,,13.75,45.1166667
gb,hurlford,Hurlford,U4,,55.583333,-4.45
mx,el mezquite,El Mezquite,18,,20.933333,-104.683333
gb,hurn,Hurn,D6,,50.766667,-1.816667
it,groppallo,Groppallo,05,,44.7,9.6
pg,kongobip,Kongobip,06,,-5.3833333,141.5
th,ban rong chak,Ban Rong Chak,55,,13.66297,100.24914
it,zampi,Zampi,17,,46.383333,10.683333
gb,hurst green,Hurst Green,H2,,53.833333,-2.483333
gb,hurst,Hurst,Q2,,51.433333,-.85
id,semowo,Semowo,07,,-7.296389,110.553333
gb,hurstmonceux,Hurstmonceux,E2,,50.883333,.333333
mm,pengwa,Pengwa,02,,21.2166667,93.3
mg,anierana,Anierana,04,,-19.0666667,48.8833333
id,menti,Menti,30,,-6.7399,108.5104
ua,lotovka,Lotovka,09,,50.017258,27.184623
rs,kathereinfeld,Kathereinfeld,00,,45.458889,20.569167
se,harnas,Harnäs,21,,60.65,17.366667
us,camp luther,Camp Luther,OH,,41.9411111,-80.6466667
gf,susini,Susini,00,,4.9333333,-52.2833333
ir,ab anarak,Ab Anarak,15,,31.412517,50.007696
tr,kabak,Kabak,82,,40.912491,32.953211
gb,hutton henry,Hutton Henry,D8,,54.716667,-1.35
in,dhorkingaon,Dhorkingaon,16,,19.616667,75.366667
ru,vezhinka,Vezhinka,83,,55.833333,41.583333
ml,soro,Soro,07,,12.5083333,-7.7086111
gt,chuachituj,Chuachituj,21,,14.983333,-91.283333
gb,hutton,Hutton,T9,,55.766667,-2.15
id,tenggongan,Tenggongan,08,,-7.7987,112.3571
uz,mangit,Mangit,08,,38.7166667,65.9166667
hr,pavlovac,Pavlovac,08,,44.5152778,15.5313889
pl,grabice,Grabice,78,,51.921878,21.119623
th,ban nong khok khwai,Ban Nong Khok Khwai,32,,15.25,100.016667
gb,huyton with roby,Huyton with Roby,G9,,53.4,-2.85
ma,bachkoun,Bachkoun,55,,30.7,-7.28
id,buu,Buu,18,,-8.8965,120.9979
gb,hyde,Hyde,O1,31926,53.45,-2.083333
